휴양림명,시도명,휴양림구분,휴양림면적,수용인원수,입장료,숙박가능여부,주요시설명,소재지도로명주소,관리기관명,휴양림전화번호,홈페이지주소,위도,경도,데이터기준일자,제공기관코드,제공기관명
강씨봉자연휴양림,경기도,공유림,9800000,102,"일반1000원, 청소년 600원, 어린이 300원",Y,"숲속의집, 산림휴양관 등",경기도 가평군 북면 논남기길 520,경기도산림환경연구소,031-8008-6611,http://farm.gg.go.kr,37.9698930209,127.4083285104,2020-05-10,6410000,경기도
칼봉산자연휴양림,경기도,공유림,2640000,160,0,Y,"숲속의집, 산림휴양관, 생태숲, 생태체험학습장, 야영장 등",경기도 가평군 가평읍 경반안로 454,가평군 시설관리공단,031-8078-8061,www.kalbong.com,37.8365339,127.4651587385,2020-05-10,6410000,경기도
구름산산림욕장,경기도,국유림,3000000,300,무료,N,"피크닉장, 황토길, 세족장, 야외소공연장, 놀이시설",경기도 광명시 하안동 산141-7,광명시,02-2680-2377,http://www.gm.go.kr/pt/user/bbs/BD_selectBbs.do?q_bbsCode=2298&q_bbscttSn=20190218155830749,37.454013,126.876365,2020-07-15,6410000,경기도
문수산산림욕장,경기도,공유림,700000,,주차료(1000~5000원),N,"숲길,산림욕장",경기도 김포시 월곶면 문수산로 102-38,"김포시 시설관리공단(산림욕장 관리), 김포시 공원녹지과(숲길관리)",031-988-2965,http://www.gp.or.kr/sub03/sub03_01.asp,37.737829,126.5308885,2020-06-16,6410000,경기도
축령산자연휴양림,경기도,공유림,7790000,172,"일반1000원, 청소년 600원, 어린이 300원",Y,"숲속의집, 산림휴양관, 야영장 등",경기도 남양주시 수동면 축령산로 299,경기도산림환경연구소,031-591-0681,http://farm.gg.go.kr,37.7547680401,127.3132530480,2020-05-10,6410000,경기도
동두천자연휴양림,경기도,공유림,700000,1000,성인2000+청소년구인1500+아동1000,Y,"숲속의집, 야외데크, 잔디광장, 유아숲체험원,",경기도 동두천시 탑동가산로 1,동두천시청 관광휴양과,031-860-3258,blog.naver.com/ddcforest,37.8898854795,127.1371472,2020-07-21,6410000,경기도
서운산자연휴양림,경기도,공유림,851805,214,N,Y,"숲속의집, 오토캠핑장, 야영장, 카라반",경기도 안성시 금광면 배티로 185-39,경기도 안성시청,031-678-2913,https://www.anseong.go.kr/tourPortal/anseongforest/main.do,36.9423847036,127.313722,2020-06-16,6410000,경기도
장흥 자연휴양림,경기도,사유림,499000,300,0,N,"물놀이장, 썰매장",경기도 양주시 장흥면 권율로 594,민간(㈜해성농림),080-233-7766,http://www.fes-artvalley.com/,37.7581669246,126.9685293171,2020-06-16,6410000,경기도
아세안자연휴양림,경기도,공유림,583880,500,1000,Y,"숲속의집14동, 안내센터, 다목적광장 등",경기도 양주시 백석읍 기산로 472,산림청,031-871-2796,www.huyang.go.kr,37.7738229255,126.9421758102,2020-06-16,6410000,경기도
용문산자연휴양림,경기도,공유림,870852,300,무료(주차료 없음),Y,"행복마루, 솔마루, 하늘마루, 산림휴양관,숲속의집,생태행복관,야영데크 등",경기도 양평군 양평읍 약수사길 78-14,경기도 양평군청,031-775-4005,www.swijapark.com,37.5160492074,127.5194198171,2020-02-26,6410000,경기도
고산자연휴양림,전라북도,공유림,6720000,3000,어른2000원+청소년군인1500원+어린이1000원,Y,"숲속의집, 휴양관, 돔하우스, 가족휴양관",전라북도 완주군 고산면 고산휴양림로 246,전라북도 완주군청,063-263-8680,https://wanju.foresttrip.go.kr/,35.96224205,127.2328719,2021-12-02,4720000,전라북도 완주군
박달재자연휴양림,충청북도,공유림,1700000,2000,무,Y,"숲속의집, 산책로등",충청북도 제천시 백운면 금봉로 228,충청북도 제천시청,043-652-0910,https://www.foresttrip.go.kr/indvz/main.do?hmpgId=ID02030062,37.14706386,128.0457749,2021-12-02,4400000,충청북도 제천시
함평자연생태공원,전라남도,국유림,561867,,5000,Y,"과학관, 나비곤충표본전시관, 캠핑트레일러, 반달가슴곰관찰원",전라남도 함평군 대동면 학동로 1398-77,함평군 산림공원과,061-320-2855,https://www.hampyeong.go.kr/ecopark/,35.13500123,126.5056999542,2021-12-01,4960000,전라남도 함평군
동두천자연휴양림,경기도,공유림,700000,1000,성인2000+청소년구인1500+아동1000,Y,"숲속의집, 야외데크, 잔디광장, 유아숲체험원,",경기도 동두천시 탑동가산로 1,경기도 동두천시청 관광휴양과,031-860-3258,https://blog.naver.com/ddcforest,37.88988548,127.1371472,2021-12-01,3920000,경기도 동두천시
수레의산자연휴양림,충청북도,공유림,970000,81,무료+숙박시설별도,Y,숙박시설+캠핑장+산책로+화장실 등,충청북도 음성군 생극면 차생로 310-108,충청북도 음성군,043-878-2013,www.eumseong.go.kr/forest,37.03888889,127.6513842,2021-11-30,4470000,충청북도 음성군
백야자연휴양림,충청북도,공유림,370000,210,무료+숙박시설별도,Y,숙박시설+캠핑장+물놀이장+산책로+화장실 등,충청북도 음성군 금왕읍 백야로 461-97,충청북도 음성군,043-878-2556,www.eumseong.go.kr/forest,36.95683951,127.6096488,2021-11-30,4470000,충청북도 음성군
동강전망자연휴양림,강원도,공유림,448000,268,없음,N,오토캠핑장,강원도 정선군 신동읍 동강로 916-212,정선군시설관리공단,070-4225-2336,https://www.jsimc.or.kr,37.25962318,128.6079002,2021-11-30,4290000,강원도 정선군
하추자연휴양림,강원도,공유림,880000,108,객실(비수기)50000원+객실(성수기)70000원+데크(비수기)20000원+데크(성수기)30000원,Y,"숲속의집,야영장",강원도 인제군 인제읍 하추로686,강원도 인제군 산림자원과,033-461-0056,,38.03534186,128.319867,2021-11-24,4330000,강원도 인제군
거제자연휴양림,경상남도,국유림,345377,600,"개인(성인 1,000 청소년, 군인700 어린이500) 단체(성인700 청소년,군인500 어린이300)",Y,숲속의집 산림문화 휴양관 야영데크 숲속수련장,경상남도 거제시 동부면 거제중앙로 325,경상남도 거제해양관광개발공사,055-639-8115,https://www.foresttrip.go.kr/indvz/main.do?hmpgId=ID02030059,34.7856966,128.625968,2021-11-23,B552833,거제해양관광개발공사
아세안자연휴양림,경기도,공유림,583880,500,일반1000원+일반(단체)800원+청소년600원+청소년(단체)500원+어린이300원+어린이(단체)200원,Y,"숲속의집14동, 안내센터, 다목적광장 등",경기도 양주시 백석읍 기산로 472,산림청,031-871-2796,http://www.huyang.kr/,37.77382293,126.9421758,2021-11-18,5590000,경기도 양주시
장흥 자연휴양림,경기도,사유림,499000,300,무료,N,"물놀이장, 썰매장",경기도 양주시 장흥면 권율로 594,민간(㈜해성농림),080-233-7766,http://www.fes-artvalley.com/,37.75816692,126.9685293,2021-11-18,5590000,경기도 양주시
좌구산자연휴양림,충청북도,공유림,730000,251,무료,Y,숲속의 집 황토방 별무리하우스 병영하우스 좌구산 숲 명상의 집 줄타기 썰매장 숲속모험시설 천문대 등,충청북도 증평군 증평읍 솟점말길 107,충청북도 증평군청,043-835-4552,https://www.foresttrip.go.kr,36.70556821,127.6511216,2021-12-31,6430000,충청북도
생거진천자연휴양림,충청북도,공유림,2210181,170,무료,Y,산림문화휴양관 숲속의집 연립동 야영센터 관리사무소,충청북도 진천군 백곡면 명암길 435-135,충청북도 진천군청,043-539-3551,https://www.foresttrip.go.kr,36.92399609,127.3902346,2021-12-31,6430000,충청북도
성불산자연휴양림,충청북도,공유림,581037,302,무료,Y,숲속의집.산림문화휴양관.숲관광메가시티.생태체험관.한옥체험관.생태공원.미선향테마파크 유아숲체험원,충청북도 괴산군 괴산읍 충민로기곡길 78,충청북도 괴산군청,043-830-2679,https://www.foresttrip.go.kr,36.80804701,127.8467688,2021-12-31,6430000,충청북도
수레의산자연휴양림,충청북도,공유림,890000,144,무료,Y,숙박시설 캠핑장 물놀이장 산책로 화장실 등,충청북도 음성군 생극면 차생로 310-108,충청북도 음성군청,043-878-2013,https://www.foresttrip.go.kr,37.03888915,127.6513855,2021-12-31,6430000,충청북도
송정자연휴양림,경상북도,공유림,636297,500,"개인(성인 1,000원, 청소년·군인 700원, 어린이 500원), 단체(성인 800원, 청소년·군인 500원, 어린이 300원)",Y,"숲속의집, 산림휴양관, 야영장, 바비큐장, 숲만남의광장 등",경상북도 칠곡군 석적읍 반계3길 88,칠곡군청,054-979-6600,https://www.foresttrip.go.kr/indvz/main.do?hmpgId=ID02030076,36.02333243,128.4416406,2020-06-30,5220000,경상북도 칠곡군
계명산자연휴양림,경상북도,공유림,2500000,177,일반1000원+단체800원(어른),Y,"숲속의 집, 황토방, 산림휴양관, 복합산림휴양관, 산막, 야영장 등",경상북도 안동시 길안면 고란길 207-99,경상북도 안동시청 공원녹지과,054-850-4700,https://www.foresttrip.go.kr/indvz/main.do?hmpgId=ID02030029,36.41012056,128.9465131,2022-02-18,5070000,경상북도 안동시
백운산자연휴양림,전라남도,공유림,363000,395,0,Y,숙박동 목재문화체험장 황토길 산책로 야영장 운동장 등,전라남도 광양시 옥룡면 백계로 337,전라남도 광양시,061-797-2655,bwmt.gwangyang.go.kr,35.05164287,127.5985311,2022-02-18,4840000,전라남도 광양시
생거진천자연휴양림,충청북도,공유림,520000,129,0원,Y,"산림문화휴양관, 숲속의집12동, 연립동, 야영센터, 관리사무소",충청북도 진천군 백곡면 명암길 435-135,충청북도 진천군청 산림축산과,043-539-3552,https://www.foresttrip.go.kr/indvz/main.do?hmpgId=ID02030033,36.923988,127.3902017,2022-02-17,4450000,충청북도 진천군
불정자연휴양림,경상북도,공유림,275,200,어른:1000+청소년/군인:800+어린이:500,Y,"숲속의집, 카라반, 야영장, 물놀이장, 야영데크",경상북도 문경시 불정길 180,문경관광진흥공단,054-553-9443,http://www.mgtpcr.or.kr,36.62128207,128.1365074,2022-02-17,5120000,경상북도 문경시
대야산자연휴양림,경상북도,국유림,820,500,어른:1000+청소년:600+어린이:300,Y,"산림문화휴양관, 연립동, 야영시설",경상북도 문경시 가은읍 용추길 31-35,국립자연휴양림관리소,054-571-7181,https://www.foresttrip.go.kr/indvz/main.do?hmpgId=0245,36.67090364,127.9619774,2022-02-17,5120000,경상북도 문경시
안면도자연휴양림,충청남도,국유림,1350000,6000,일반 1000원+청소년 800원 +군인 800원 + 어린이 400원,Y,"전시관, 수목원, 숲속의집 등",충청남도 태안군 안면읍 안면대로3195-6,충청남도 산림환경연구소 휴양림관리사무소,041-674-5019,www.anmyonhuyang.go.kr,36.49670127,126.3588291,2020-02-05,4620000,충청남도 태안군
국립희리산해송자연휴양림,충청남도,국유림,1430000,500,"개인 어른 1,000원 청소년600원 어린이300원단체 어른 800원 청소년500원 어린이200원",Y,"숲속의집,야영장,숲속수련장",충청남도 서천군 종천면 희리산길 206,국립자연휴양림관리소,041-953-2230,https://www.foresttrip.go.kr/indvz/main.do?hmpgId=0187,36.11262716,126.664181,2021-07-12,4580000,충청남도 서천군
금봉자연휴양림,경상북도,공유림,380,800,"1,000원",y,산림휴양관외,경상북도 의성군 옥산면 휴양림길 114,경상북도 의성군청,054-833-0123,http://www.foresttrip.go.kr,36.3360183,128.8807891,2021-06-30,5150000,경상북도 의성군
용봉산자연휴양림,충청남도,공유림,1905504,3000,개인 일반 1000+청소년·군인 800+어린이 400+단체 일반 800 +청소년·군인 600 +어린이 200,N,산림휴양관 숲속의집 산림전시관,충청남도 홍성군 홍북읍 용봉산2길 87,홍성군청 산림녹지과,041-630-1785,https://www.foresttrip.go.kr/indvz/main.do?hmpgId=ID02030080,36.64528712,126.6566318,2022-01-31,4600000,충청남도 홍성군
춘천숲자연휴양림,강원도,공유림,808043,400,일반2000원+단체1500원,Y,숲속의 집 산림휴양관 글램핑장,강원도 춘천시 동산면 종자리로 224-104,강원도 춘천시청,033-264-1156,www.ccforest.or.kr,37.747732,127.742503,2022-01-19,4180000,강원도 춘천시
망경대산자연휴양림,강원도,국유림,51,4,3000,Y,숲속의집,강원도 영월군 중동면 선도우길 177,영월군시설관리공단,033-375-8765,https://www.mgds.kr:454/,37.1838677681,128.5934844980,2020-01-01,4270000,강원도 영월군
구재봉자연휴양림,경상남도,공유림,1140,91,1000,Y,"휴양관,숲속의집,트리하우스",경상남도 하동군 적량면 중서길 60-81,하동군산림녹지과,070-8855-8010,https://www.foresttrip.go.kr/indvz/main.do?hmpgId=ID02030072,35.1289579366,127.7440937074,2020-12-10,5440000,경상남도 하동군
편백자연휴양림,경상남도,공유림,503,50,1000,Y,숲속의집,경상남도 하동군 옥종면 위태리 산281-3,하동군산림녹지과,070-8994-0717,https://www.foresttrip.go.kr/indvz/main.do?hmpgId=ID02030103,35.1858764,127.8484386,2020-12-10,5440000,경상남도 하동군
교래자연휴양림,제주특별자치도,공유림,230,1500,어른1000원+청소년·군인600원,Y,휴양림+숙박동+야영장+야외공연장+풋살경기장+다목적운동장,제주특별자치도 제주시 조천읍 남조로 2023,제주특별자치도청,064-783-7482,http://www.jeju.go.kr/jejustoneparkforest/index.htm,33.4513637573,126.6567108939,2020-12-01,6500000,제주특별자치도
서귀포자연휴양림,제주특별자치도,국유림,255,1500,일반1000원+청소년600원+어린이300원,Y,휴양림+숲속의집+산림휴양관+세미나실+야영데크,제주특별자치도 서귀포시 1100로 882,서귀포시청,064-738-4544,http://healing.seogwipo.go.kr/index.htm,33.3115002499,126.458761,2020-12-01,6500000,제주특별자치도
붉은오름자연휴양림,제주특별자치도,공유림,190,1500,일반1000원+청소년·군인600원,Y,휴양림+숲속의집+산림문화휴양관+산림욕장+잔디광장+세미나실,제주특별자치도 서귀포시 표선면 남조로1487-73,서귀포시청,064-782-9171,http://healing.seogwipo.go.kr/index.htm,33.4014295763,126.6756715619,2020-12-01,6500000,제주특별자치도
절물자연휴양림,제주특별자치도,국유림,300,2000,일반1000원+청소년600원+어린이300원,Y,휴양림+숲속의집+숲속수련장+세미나실+등산로,제주특별자치도 제주시 명림로 584,제주시청,064-728-1510,http://jeolmul.jejusi.go.kr/,33.4400488067,126.6252034012,2020-12-01,6500000,제주특별자치도
흥부골자연휴양림,전라북도,공유림,1004157,60,"일반1000원+단체800원일반, 단체, 청소년 등 구분별 상세 이용요금",Y,"숲속의집, 야영장 등",전라북도 남원시 인월면 구인원길 125,전라북도 남원시청,063-636-4032,www.foresttrip.go.kr,35.450932,127.590258,2021-09-14,4700000,전라북도 남원시
비학산자연휴양림,경상북도,공유림,2280000,150,"숙박 : 7만원, 11만원, 14만원",Y,"산림휴양관, 숲속의 집, 테라스하우스, 카라반, 야외데크, 생태숲 등",경상북도 포항시 북구 기북면 비학산길 302,포항시청,054-252-3275,https://www.foresttrip.go.kr/indvz/main.do?hmpgId=ID02030052,36.14703337,129.2111071,2021-09-14,5020000,경상북도 포항시
백아산자연휴양림,전라남도,공유림,1000000,170,어른1000원+청소년600원+어린이400원,Y,"족구장,정자,계곡데크",전라남도 화순군 백아면 수양로 353,전라남도 화순군청,061-379-3738,http://forest.hwasun.go.kr,35.15137582,127.1671251,2021-09-14,4900000,전라남도 화순군
한천자연휴양림,전라남도,공유림,1480000,86,어른1000원+청소년600원+어린이400원,Y,"캠핑장,데크,잔디광장, 정자, 물썰매장",전라남도 화순군 한천면 죽헌로 719,전라남도 화순군청,061-379-3734,http://forest.hwasun.go.kr,34.98834125,127.0454803,2021-09-14,4900000,전라남도 화순군
회문산자연휴양림,전라북도,국유림,2890000,300,"어른 1,000원 청소년 600원 어린이 300원",Y,숲속의 집+산림문화 휴양관+야영시설,전라북도 순창군 구림면 안심길 295,국립자연휴양림관리소,063-653-4779,http://www.huyang.go.kr/forest/contentIntro.action?dprtmId=0188,35.50195867,127.1148251,2021-09-30,4770000,전라북도 순창군
공주산림휴양마을,충청남도,공유림,518270,250,무료,Y,숲속의집/휴양관/야영장/목재문화체험장,충청남도 공주시 수원지공원길 222,공주시청,041-855-0855,http://jumisan.gongju.go.kr,36.42442578,127.1193201,2021-10-22,4500000,충청남도 공주시
숲체원,강원도,국유림,159710,300,별도 입장료 없음,Y,"탐방로, 숙박동, 강의실",강원도 횡성군 둔내면 청태산로 777,산림청,033-340-6300,https://hoengseong.fowi.or.kr/,37.53722046,128.2866886,2021-12-25,4260000,강원도 횡성군
청태산휴양림,강원도,국유림,159520,1500,일반 : 1000원+청소년 : 600원+어린이 : 300원,Y,"제1산림문화휴양관, 제2산림문화휴양관, 숲속의집, 숲속수련장(중형, 소형), 대형숲속수영장(회의실), 야영장, 인도네시아 전통 전시관, 숲생태체험실, BIY목공교실",강원도 횡성군 둔내면 청태산로 610,산림청,033-343-9707,https://www.foresttrip.go.kr/indvz/main.do?hmpgId=0106,37.52907993,128.2968658,2021-12-25,4260000,강원도 횡성군
문수산 산림욕장,경기도,공유림,700000,250,주차료(1000~5000원),N,"숲길,산림욕장",경기도 김포시 월곶면 문수산로 102-38,김포도시관리공사,031-988-2965,https://www.guc.or.kr/facility/park_moonsoosan.asp,37.737829,126.5308885,2021-12-16,4090000,경기도 김포시
충북알프스자연휴양림,충청북도,공유림,902000,287,0,Y,"숲속의집,세미나실,목공예체험장 등",충청북도 보은군 산외면 속리산로 1880,속리산휴양사업소,043-540-3712,https://alpshuyang.foresttrip.go.kr/,36.57316547,127.7858442,2021-12-15,4420000,충청북도 보은군
속리산 숲체험휴양마을,충청북도,공유림,1100000,350,0,Y,"한옥마을 ,황토마을, 통나무마을 등",충청북도 보은군 속리산면 속리산로 596,속리산휴양사업소,043-540-3220,http://songnihuyang.foresttrip.go.kr/,36.49245442,127.792472,2021-12-15,4420000,충청북도 보은군
치악산자연휴양림,강원도,공유림,1700000,120,"일반(개인 2000, 청소년 및 군인 1500, 어린이 1000), 단체(어른 1500, 청소년 및 군인 1000, 어린이 700)",Y,"숲속의집,주차장,야영장",강원도 원주시 판부면 휴양림길 66,강원도 원주시 산림과,033-762-8288,https://foresttrip.go.kr/indvz/main.do?hmpgId=ID02030024,37.255878,128.031372,2021-11-30,4190000,강원도 원주시
순천자연휴양림,전라남도,사유림,90000,265,없음,Y,"관리사무실 1동, 숙박시설 14동 23실, 캐빈하우스 6동 텐트19면",전라남도 순천시 서면 청소년수련원길 170,전라남도 순천시청,061-749-8948,www.foresttrip.go.kr,35.04388083,127.4744949,2022-01-28,4820000,전라남도 순천시
봉수산자연휴양림,충청남도,공유림,948780,171,0,Y,"숲속의집,산림문화휴양관",충청남도 예산군 대흥면 임존성길 153,예산군 관광시설사업소 휴양림팀,041-339-8936,https://www.foresttrip.go.kr/indvz/main.do?hmpgId=ID02030028,36.59844872,126.7808937,2022-01-25,4610000,충청남도 예산군
양촌자연휴양림,충청남도,공유림,405274,121,(일반)1000원+(단체)800원,Y,글램핑장(4동)+숲속의집(10동)+휴양관(7실),충청남도 논산시 양촌면 매죽헌로1723번길 176-23,충청남도 논산시청,041-746-6481,https://www.foresttrip.go.kr/indvz/main.do?hmpgId=ID02030034,36.15726044,127.2464846,2021-09-30,4540000,충청남도 논산시
화왕산자연휴양림,경상남도,공유림,643000,70,"[휴양관 4인실 : (비수기및주중)50000원+(성수기및주말)75000원]+[휴양관 8인실 : (비수기및주중)80000원+(성수기및주말)100000원]+[숲속의 집(7인실) : (비수기및주중)70000원+ (성수기및주말)90,000원]+[야영데크 : (1박)5000원]+[주차료 : (경형)1000원+(중소형)2000원+(대형)3000원+(산림휴양관, 숲속의 집 이용시) 면제]",Y,휴양관+야영데크+바비큐장+숲길,경상남도 창녕군 고암면 청간길 128-126,경상남도 창녕군산림조합,055-533-2332,https://www.foresttrip.go.kr/indvz/main.do?hmpgId=ID02030015,35.54697823,128.5673185,2022-01-18,5410000,경상남도 창녕군
민주지산자연휴양림,충청북도,공유림,1800000,394,"어른 1,000원, 청소년 500원 , 어린이 300원",Y,"버섯동,야생화동,국악동,식당, 황토방, 황토찝질방, 학습관, 너와집,산림문화휴양관1,2층 세미나실,치유숙소6개소,치유센터,진료동, 치유센터치유동,야외 치유시설, 야영장, 족구장 등",충청북도 영동군 용화면 조동리 민주지산로 60,충청북도 영동군청 산림과,043-740-3438,https://yd21.go.kr/portal/html/sub04/0404.html,36.0573434,127.8251649,2020-11-27,4440000,충청북도 영동군
운문산자연휴양림,경상북도,국유림,170000,1000,1000원,Y,숲속의집+산림문화휴양관+숲속수련장+야영시설,경상북도 청도군 운문면 운문로 763,국립자연휴양림관리소,054-373-1327,http://www.huyang.go.kr,35.6483467486,129.0262079787,2020-06-30,5190000,경상북도 청도군
주작산자연휴양림,전라남도,공유림,1690000,138,0,Y,"휴양관,숲속의집,세미나실 등",전라남도 강진군 신전면 주작산길 262,강진군,061-430-3306,https://foresttrip.go.kr/indvz/main.do?hmpgId=ID02030060,34.5172932,126.6989685,2021-02-08,4920000,전라남도 강진군
흥림산자연휴양림,경상북도,공유림,64,112,무료,Y,"산림문화휴양관, 숲속의집",경상북도 영양군 일월면 재일로 2394-70,경상북도 영양군청 산림축산과 산지이용담당,054-680-5050,https://www.foresttrip.go.kr/indvz/main.do?hmpgId=ID02030057,36.70182591,129.1124232,2021-09-03,5170000,경상북도 영양군
청송자연휴양림,경상북도,공유림,2110000,160,"개인:어른(1000), 청소년(600), 어린이(300), 단체:어른(800), 청소년(500), 어린이(200)",Y,"숲속의 집, 연수의집",경상북도 청송군 부남면 청송로 3478-96,경상북도 청송군청,054-872-3163,http://csong.foresttrip.go.kr/,36.3179023,129.0537598,2021-09-28,5160000,경상북도 청송군
토함산자연휴양림,경상북도,공유림,1211344,330,개인-어른 1000원+청소년/군인 700원+어린이 500원+단체-어른 700원+청소년/군인 500원+어린이 300원+경주시민 무료,Y,"숲속의집, 화랑관, 야영장, 국학관(세미나실) 등",경상북도 경주시 양북면 불국로 1208-45,경상북도 경주시,054-750-8700,https://www.foresttrip.go.kr/indvz/main.do?hmpgId=ID02030027,35.76191761,129.3654772,2021-09-29,5050000,경상북도 경주시
입화산 자연휴양림,울산광역시,공유림,380291,0,없음,N,"오토캠핑장, 일반야영장, 산림욕장, 숲속도서관, 네이처스포츠, 모노레일",울산광역시 중구 다운동 산47-1번지,울산광역시 중구,052-290-4410,http://www.junggu.ulsan.kr/camping/,35.578739,129.279479,2021-09-27,3690000,울산광역시 중구
평창자연휴양림,강원도,공유림,540000,80,일반2000원+단체1500원,Y,숙박동+세미나실+운동장+산책로,강원도 평창군 봉평면 팔송로 285,평창군청 산림과,033-339-9028,https://www.foresttrip.go.kr/indvz/main.do?hmpgId=ID02030003,37.609548,128.303521,2021-09-15,4280000,강원도 평창군
데미샘자연휴양림,전라북도,공유림,200000,131,무료,Y,"휴양관, 숲속의집, 숲문화마당, 명상의숲 등",전라북도 진안군 백운면 데미샘 1길 172,산림환경연구소,063-290-6992,https://www.foresttrip.go.kr/indvz/main.do?hmpgId=ID02030074,35.656988,127.461036,2021-09-24,6450000,전라북도
불갑사 관광휴양단지,전라남도,사유림,106300,200,무료,Y,"관광지,힐링컨벤션센터",전라남도 영광군 불갑면 자비길 51-38,전라남도 영광군청,061-353-4476,glory-healing.com,35.202988,126.5367799663,2021-09-15,4970000,전라남도 영광군
데미샘자연휴양림,전라북도,공유림,200,107,무료,Y,"휴양관,숲속의집, 숲문화마당, 명상의숲 등",전라북도 진안군 백운면 데미샘 1길 172,전라북도 산림환경연구소,063-290-6993,https://www.foresttrip.go.kr/indvz/main.do?hmpgId=ID02030074,35.660012,127.463012,2021-09-15,4730000,전라북도 진안군
운장산자연휴양림,전라북도,국유림,1958,600,"일반인(개인 1,000/단체 800) 청소년(개인 600/단체 500) 어린이(개인 300/단체 200)",Y,"숲속의집,연립동, 산림문화휴양관, 숲속수련관",전라북도 진안군 정천면 휴양림길 77,무주국유림관리소,063-432-1193,https://www.foresttrip.go.kr/indvz/main.do?hmpgId=0194,35.893645,127.468017,2021-09-15,4730000,전라북도 진안군
수도산 자연휴양림,경상북도,공유림,590445,206,0,Y,"숲속의집, 힐하우스. 숲속휴양관, 숲속수련관",경상북도 김천시 대덕면 증산로 326-71,김천시,054-435-5128,sudosanhuyang.gc.go.kr,35.89180240,127.98384630,2021-09-16,5060000,경상북도 김천시
소선암자연휴양림,충청북도,공유림,633137,500,무료,Y,"통나무집, 숲속의집, 산림문화휴양관, 산림복합휴양관, 백두대간 문화휴양관",충청북도 단양군 단성면 대잠2길15,충청북도 단양군청,043-422-7839,https://www.foresttrip.go.kr/indvz/main.do?hmpgId=ID02030009,36.91922041,128.3123141,2021-09-14,4480000,충청북도 단양군
학가산우래자연휴양림,경상북도,사유림,1328133,220,성인3000+성인단체(20인이상)2000+청소년·어린이2000+청소년단체(20인이상)1000,Y,"숲속의 집, 산림휴양관 등",경상북도 예천군 보문면 휴양림길 210,(주)학가산자연휴양림개발,054-652-0114,숲나들e (https://www.foresttrip.go.kr/main.do?hmpgId=FRIP),36.677929,128.592876,2021-09-15,5230000,경상북도 예천군
한방자연휴양림,경상남도,공유림,1376062,124,무료,Y,"숲속의집, 숲속휴양관, 세미나실",경상남도 산청군 금서면 동의보감로555번길 186,경상남도 산청군,055-970-6951,https://www.foresttrip.go.kr/indvz/main.do?hmpgId=ID02030037,35.43403493,127.8236813,2022-01-12,5450000,경상남도 산청군
바라산자연휴양림,경기도,공유림,2085484,470,없음,Y,"숲속의집,야영장,치유의숲,체험의숲,산림문화휴양관",경기도 의왕시 바라산로 84,의왕도시공사,031-8086-7482,barasan.foresttrip.go.kr/,37.37310185,127.0193147,2021-12-31,4030000,경기도 의왕시
삼척활기자연휴양림,강원도,사유림,75625,175,0,Y,"휴양관(송폭헌), 한옥(방우재), 한옥(세우재),숲속의집(구희당),숲속의집(삼락당)",강원도 삼척시 미로면 준경길 651-43(지번활기리 403-1),삼척동해태백산림조합,033-574-0032,https://www.foresttrip.go.kr/indvz/main.do?hmpgId=ID02030104,37.38099374,129.0601226,2022-01-11,4240000,강원도 삼척시
간월산자연휴양림,울산광역시,사유림,597890,200,주중10~20만원+주말15~30만원,Y,"관리실,수영장,연수원",울산광역시 울주군 상북면 작괘로 607-15,천광디엔씨,052-263-6644,http://www.gwhuyang.co.kr/,35.5670959,129.0560416,2022-01-10,3730000,울산광역시 울주군
옥화자연휴양림,충청북도,공유림,1364921,244,어른 1000원 + 청소년 500원 + 어린이 300원 + 군인 500원 + 지역주민 500원,Y,숲속의집 산림휴양관 캠핑장 산책로 등,충청북도 청주시 상당구 미원면 운암옥화길 140,충청북도 청주시청(위탁운영),043-270-7381,https://www.foresttrip.go.kr,36.59895012,127.6943716,2021-12-31,6430000,충청북도
문성자연휴양림,충청북도,공유림,566569,180,무료,Y,숲속의집 단체숙소 휴양관 유아숲체험원 목재문화체험장 짚라인 오토캠핑장 산책로 등,충청북도 충주시 노은면 우성1길 191,충청북도 충주시청(위탁운영),043-850-7346,https://www.foresttrip.go.kr,37.02832602,127.7525217,2021-12-31,6430000,충청북도
봉황자연휴양림,충청북도,공유림,1720000,176,무료,Y,숲속의집 단체숙소 산책로 등,충청북도 충주시 중앙탑면 수룡봉황길 540,충청북도 충주시청(위탁운영),043-850-7315,https://www.foresttrip.go.kr,37.05652228,127.8297465,2021-12-31,6430000,충청북도
구름산산림욕장,경기도,국유림,3000000,300,무료,N,"피크닉장, 황토길, 세족장, 야외소공연장, 놀이시설",경기도 광명시 하안동 산141-7,광명시,02-2680-2377,http://www.gm.go.kr/pt/user/bbs/BD_selectBbs.do?q_bbsCode=2298&q_bbscttSn=20190218155830749,37.454013,126.876365,2020-12-18,3900000,경기도 광명시
여수봉황산자연휴양림,전라남도,공유림,2290000,100,1000,Y,"숲속의집,야영장 등",전라남도 여수시 돌산읍 대복길160,전라남도 여수시청,061-643-9180,https://www.foresttrip.go.kr/indvz/main.do?hmpgId=ID02030097,34.6147023710,127.7617998912,2020-12-09,4810000,전라남도 여수시
용인자연휴양림,경기도,공유림,1622705,1800,"개인(성인:2000원, 청소년:1000원, 어린이:600원), 단체(성인:1600원, 청소년:800원, 어린이:400원)",Y,"숲속의집, 숲속체험관, 목조주택, 생태습지, 야영장, 잔디광장, 짚라인, 목재문화체험관 등",경기도 용인시 처인구 모현면 초부로 220,용인시/용인도시공사위탁운영,031-336-0040,www.yonginforest.net,37.314713,127.265315,2019-04-10,4050000,경기도 용인시
광치자연휴양림,강원도,공유림,51,160,"일반:2000원, 청소년:1500원, 단체일반:1500원, 단체청소년:1000원",Y,"휴양관, 숲속의집, 숲속카페, 트리하우스,",강원도 양구군 남면 광치령로 1794번길 265,양구군청,033-482-3115,http://www.kwangchi.or.kr/,38.143507,128.071262,2018-08-29,4320000,강원도 양구군
금산산림문화타운,충청남도,공유림,316,3000,없음,Y,"숲속의집, 생태체험학습장, 야영장, 캠핑장 등",충청남도 금산군 남이면 느티골길 200,충청남도 금산군청,041-753-5706,https://gsforesttown.foresttrip.go.kr,36.06776064,127.3690934,2021-10-18,4550000,충청남도 금산군
진산자연휴양림,충청남도,사유림,137,350,없음,Y,"숲속의집, 산책로, 캠핑장, 글램핑장, 짚핑",충청남도 금산군 진산면 대둔산로 6,유숭열,041-753-4242,www.ijinsan.co.kr,36.12303243,127.3441498,2021-10-18,4550000,충청남도 금산군
서대산약용자연휴양림,충청남도,사유림,29,500,없음,Y,"산야초체험장, 산약초음식점,숲속의집",충청남도 금산군 추부면 홍골1길 132,김창현,041-753-2222,www.sedaesan.modoo.at,36.22268671,127.5258197,2021-10-18,4550000,충청남도 금산군
심천치유자연휴양림,충청남도,사유림,700,200,없음,Y,"숲속의집, 야영장, 캠핑장 등",충청남도 금산군 남일면 신동길 239,박남희,041-752-8300,www.simcheon.kr,35.99504733,127.4849511,2021-10-18,4550000,충청남도 금산군
제암산자연휴양림,전라남도,공유림,1600000,3000,"일반:1000원, 단체:800원",Y,"숙박,야영장,물놀이터,더늠길,숲속교육관,몽골텐트,족구장데크,모험시설",전라남도 보성군 웅치면 대산길 330,전라남도 보성군청,061-852-4434,https://www.foresttrip.go.kr/indvz/main.do?hmpgId=ID02030090,34.70050454,126.9855053,2021-10-18,4890000,전라남도 보성군
천보산자연휴양림,경기도,공유림,1165686,80,"일반:2,000원, 단체:1,400원",Y,"숲속의집, 휴양관, 야영장 등",경기도 포천시 원동교길 309,포천시,031-538-3554,임시휴장중,37.85576406,127.1190897,2021-09-30,5600000,경기도 포천시
국망봉자연휴양림,경기도,사유림,2554814,60,"관람객:5,000원, 등산객:2,000원",Y,"통나무 집, 캠핑장 등",경기도 포천시 이동면 늠바위길 207-28,김봉일,031-532-0014,www.kookmang.co.kr,38.02891868,127.3962681,2021-09-30,5600000,경기도 포천시
칠갑산자연휴양림,충청남도,공유림,73000,500,개인 일반 1000원 +개인 청소년·군인 800원+개인 어린이 500원+단체 일반 800원+단체 청소년·군인 600원+단체 어린이 300원 + 청양 부여 공주 군(시)민 무료,Y,숲속의 집+산림문화 휴양관+원두막+기타시설 등,충청남도 청양군 대치면 칠갑산로 668-103,충청남도 청양군공공시설사업소,041-940-2429,https://www.foresttrip.go.kr/indvz/main.do?hmpgId=ID02030044,36.431589,126.8438227,2021-10-15,4590000,충청남도 청양군
태학산자연휴양림,충청남도,공유림,1055598,1000,없음,N,"숲속의집,잔디광장,숲속공연장 등",충청남도 천안시 동남구 풍세면 휴양림길 127,충청남도 천안시청,041-529-5108,http://www.cfmc.or.kr/_taehaksan/,36.72734819,127.0903273,2021-10-15,4490000,충청남도 천안시
대운산자연휴양림,경상남도,공유림,2137479,200,무료,Y,"숲속의집, 산림휴양관, 야영데크 등",경상남도 양산시 탑골길 208-124,양산시시설관리공단,055-379-8670,https://www.foresttrip.go.kr/indvz/main.do?hmpgId=ID02030038,35.4164113,129.2105343,2021-10-07,5380000,경상남도 양산시
용추자연휴양림,경상남도,공유림,1590000,400,없음,Y,"산림문화휴양관, 숲속의집, 취사장, 화장실, 샤워장, 야영장, 관리사무실 등",경상남도 함양군 안의면 용추휴양림길 166,경상남도 함양군청,055-963-8702,https://www.foresttrip.go.kr/indvz/main.do?hmpgId=ID02030047,35.6961266,127.7578596,2021-10-07,5460000,경상남도 함양군
산삼자연휴양림,경상남도,공유림,670000,200,없음,Y,"산림문화휴양관, 숲속의집 , 관리사무실 등",경상남도 함양군 서상면 가르내길 202-1,경상남도 함양군청,055-964-9886,https://www.foresttrip.go.kr/indvz/main.do?hmpgId=ID02030048,35.69762431,127.6584311,2021-10-07,5460000,경상남도 함양군
대봉산자연휴양림,경상남도,공유림,950000,150,없음,Y,"산림문화휴양관, 숲속의집, 관리사무실, 해피쿠킹장 등",경상남도 함양군 병곡면 병곡지곡로 333,경상남도 함양군청,055-964-1090,https://www.foresttrip.go.kr/indvz/main.do?hmpgId=ID02030046,35.57794141,127.7150294,2021-10-07,5460000,경상남도 함양군
강화군 석모도자연휴양림,인천광역시,공유림,1283632,208,개인일반1000원+청소년군인800원+어린이500원+단체일반 800원+청소년군인600원+어린이300원,Y,"숲속의 집, 산림문화휴양관, 족구장 등",인천광역시 강화군 삼산면 삼산서로 39-75,산림공원과,032-932-1100,forest.ganghwa.go.kr,37.69963904,126.3154373,2021-10-06,3570000,인천광역시 강화군
강화군 티앤림 자연휴양림,인천광역시,사유림,320941,40,현재무료+이용료+집라인38000원+어드벤쳐22000원+패키지50000,Y,"숲속의집, 집라인, 어드벤쳐",인천광역시 강화군 불은면 중앙로 546-34,기전산업,032-937-7481,www.tianlim.co.kr,37.71482742,126.453839,2021-10-06,3570000,인천광역시 강화군
문수산자연휴양림,경상북도,국유림,30000,500,자연휴양림으로 문의,Y,"산림휴양관, 묵상의집, 숲속의집, 야영데크 등",경상북도 봉화군 봉성면 시거리길 378,봉화군시설관리사업소,054-674-3700,https://www.foresttrip.go.kr/indvz/main.do?hmpgId=ID02030102,36.950851,128.834816,2021-09-29,5240000,경상북도 봉화군
사천 케이블카 자연휴양림,경상남도,공유림,394000,250,"어른: 1,000원(개인), 800원(단체)청소년·군인: 700원(개인), 500원(단체)어린이: 400원(개인), 200원(단체)",Y,"숲속의집, 휴양관, 야영장, 야영센터어린이 물놀이장, 숲놀이터, 숲속 산책로",경상남도 사천시 실안길 242-45,사천시 녹지공원과,055-835-9524,https://www.foresttrip.go.kr/indvz/main.do?hmpgId=ID02030112,34.95016897,128.0576108,2021-10-06,5340000,경상남도 사천시
문성자연휴양림,충청북도,공유림,560000,145,무료,Y,"숲속의집, 단체숙소",충청북도 충주시 노은면 우성1길 191,충주시시설관리공단,043-870-7910,https://www.foresttrip.go.kr/indvz/main.do?hmpgId=ID02030055,37.02832486,127.7525206,2021-09-30,4390000,충청북도 충주시
봉황자연휴양림,충청북도,공유림,1740000,200,무료,Y,"숲속의집, 단체숙소",충청북도 충주시 중앙탑면 수룡봉황길540,충주시시설관리공단,043-870-7920,https://www.cjfmc.or.kr/bhf/index.do,37.05652102,127.8297473,2021-09-30,4390000,충청북도 충주시
계명산자연휴양림,충청북도,공유림,3630000,149,무료,Y,"숲속의집, 단체숙소",충청북도 충주시 충주호수로 1170,충주시시설관리공단,043-840-7930,https://www.foresttrip.go.kr/indvz/main.do?hmpgId=ID02030042,36.9793629,127.9950872,2021-09-30,4390000,충청북도 충주시
거제자연휴양림,경상남도,공유림,329490,285,일반 1000,Y,숲속의집+ 산림문화휴양관,경상남도 거제시 동부면 거제중앙로 325,경상남도 거제시청,055-639-8115,https://www.foresttrip.go.kr/indvz/main.do?hmpgId=ID02030059,34.78569918,128.6259431,2021-09-30,5370000,경상남도 거제시
고대산자연휴양림,경기도,국유림,314000,183,"어른 :  개인 1,000원, 단체 800원청소년,군인 : 개인 800원, 단체 600원어린이 : 개인 500원, 단체 300원",Y,숲속의집 14동14실산림휴양관 1동2층6실숲속수련원 1동1실방문자센터 1동2층야영장데크 20개소,경기도 연천군 신서면 고대산길 84-79,연천군청,031-834-2200,https://godaesan.foresttrip.go.krwww.foresttrip.go.kr,38.21125391,127.1507058,2021-11-08,4140000,경기도 연천군
미숭산자연휴양림,경상북도,공유림,358000,88,없음,Y,"숲속의집, 산림문화휴양관",경상북도 고령군 대가야읍 낫질로 672-99,고령군,054-950-7407,www.misungsan.com,35.75077545,128.2028394,2021-10-21,5200000,경상북도 고령군
간월산자연휴양림,울산광역시,사유림,597890,200,주중10~20만원+주말15~30만원,Y,"관리실,수영장,연수원",울산광역시 울주군 상북면 작괘로 607-15,천광디엔씨,052-263-6644,http://www.gwhuyang.co.kr/,35.5670959,129.0560416,2020-09-22,6310000,울산광역시
입화산 자연휴양림,울산광역시,공유림,380291,0,없음,N,"오토캠핑장, 일반야영장, 산림욕장, 숲속도서관, 네이처스포츠, 모노레일",울산광역시 중구 다운동 산47-1번지,울산광역시 중구,052-290-4410,준비 중,35.578739,129.279479,2020-09-22,6310000,울산광역시
성주봉자연휴양림,경상북도,공유림,2000000,229,0,Y,숲속의집산림휴양관산림수련관야영장,경상북도 상주시 은척면 성주봉로 3,상주시청,054-541-6512,http://seongjubong.sangju.go.kr,36.5335984395,128.0407595461,2020-07-13,5110000,경상북도 상주시
독용산성 자연휴양림,경상북도,공유림,1467000,96,입장료 무료,Y,"숲속휴양관, 휴양관, 숲속의집, 관리사무소, 야외화장실 등",경상북도 성주군 금수면 사더래길 144,경상북도 성주군청 산림과,054-930-8401,www.dokyonf.foresttrip.go.kr,35.9063679487,128.1344114728,2020-07-15,5210000,경상북도 성주군
옥화자연휴양림,충청북도,공유림,1364921,485,0,Y,숲속의집+산림휴양관+캠핑장 등,충청북도 청주시 상당구 미원면 운암옥화길 140,청주시시설관리공단,043-270-7381,http://okhwa.cheongju.go.kr,36.5989486708,127.6943725612,2020-07-01,5710000,충청북도 청주시
가리산자연휴양림,강원도,공유림,3050000,234,"어른 : 1인*1일(2,000원)청소년 : 1인*1일(1,500원)어린이 : 1인*1일(1,000원)다자녀 가정 : 면제",Y,"관리동사무소 1동, 매표소 1동방갈로 10동(2.5평형) 산림문화휴양관 1동(9실)풋살장 1면다목적 광장 1개소매점(휴게소) 1동  화장실 7동공동취사장 1개소 주차장 1개소(95면)샤워장 1개소 야영데크 38면(28/8㎡,10/13㎡)",강원도 홍천군 두촌면 가리산길 426,홍천군,033-435-6035,https://garisan.foresttrip.go.kr,37.865235,127.9824687,2019-11-20,4250000,강원도 홍천군
박달재자연휴양림,충청북도,공유림,1700000,136,무료,Y,숲속의집 산책로등,충청북도 제천시 백운면 금봉로 223,충청북도 제천시청,043-641-6527,https://www.foresttrip.go.kr,37.14806356,128.045293,2021-12-31,6430000,충청북도
장령산자연휴양림,충청북도,공유림,2000000,2500,없음,Y,"숲속의집,산림문화휴양관,휴-포레스트,야영장,야외물놀이장,치유의 숲 등",충청북도 옥천군 군서면 장령산로 519,충청북도 옥천군청,043-730-3491,https://www.foresttrip.go.kr/indvz/main.do?hmpgId=ID02030036,36.2448673700,127.5547496949,2021-10-23,4430000,충청북도 옥천군
태백고원자연휴양림,강원도,국유림,1404000,110,"2,000원",Y,"산림문화휴양관, 숲속의 집 , 야영장",강원도 태백시 머리골길153,태백시청 공원녹지과,033-550-2849,https://www.foresttrip.go.kr/indvz/main.do?hmpgId=ID02030022,37.1235765388,129.0603831534,2021-10-20,4220000,강원도 태백시
초록산산림욕장,경기도,공유림,517991,0,무료,N,"산림욕장, 등산로, 유아숲체험장",경기도 화성시 양감면 사창리 810-9,화성시 산림녹지과,031-5189-2344,http://www.hscity.go.kr/eco/,37.09236517,126.9562449,2021-10-20,5530000,경기도 화성시
서봉산산림욕장,경기도,사유림,365000,0,무료,N,"산림욕장, 등산로, 유아숲체험장",경기도 화성시 정남면 문학리 산120-1,화성시 산림녹지과,031-5189-2344,http://www.hscity.go.kr/eco/,37.1581905169,126.9557910745,2021-10-20,5530000,경기도 화성시
구례산수유자연휴양림,전라남도,공유림,118909,83,"2,000원",Y,"산림휴양관, 숲속의 집",전라남도 구례군 산동면 정산길 251,구례군,061-780-2897,http://ecopark.gurye.go.kr,35.30090353,127.4626987,2021-10-20,4870000,전라남도 구례군
세심자연휴양림,전라북도,국유림,101.45,100,1000,Y,숲속의집,전라북도 임실군 삼계면 임삼로 485,전라북도 임실군청,063-644-4611,https://site.onda.me/69138,35.514241,127.240066,2021-10-21,4760000,전라북도 임실군
팔영산자연휴양림,전라남도,공유림,1870000,250,없음,Y,"숲속의집 12동, 산림문화휴양관 1동",전라남도 고흥군 영남면 팔영로 1347-418,고흥군청,061-830-5386,https://www.foresttrip.go.kr/indvz/main.do?hmpgId=ID02030069,34.62133127,127.4401371,2021-10-22,4880000,전라남도 고흥군
두루웰자연휴양림,강원도,공유림,1864000,100,"개인(일반1000, 청소년600, 어린이300)단체(일반 700, 청소년400, 어린이200)",Y,"숲속의집, 트리하우스, 캠핑장",강원도 철원군 갈말읍 지경1길 69,강원도 철원군청 녹색성장과,033-450-5198,www.foresttrip.go.kr,38.227936,127.353297,2021-10-21,4300000,강원도 철원군
신어산 산림욕장,경상남도,사유림,10000,,무료,N,"산림욕로, 등산로 등",경상남도 김해시 신어산길 169,김해시청,,,35.26938553,128.91010150,2021-10-20,5350000,경상남도 김해시
옥성자연휴양림,경상북도,공유림,1531821,1900,무료,Y,"숲속의집, 산림문화휴양관, 물놀이장, 산책로, 유아숲체험원",경상북도 구미시 옥성면 휴양림길 150,구미시설공단,054-481-4052,www.foresttrip.go.kr/,36.27907203,128.2844292,2021-10-20,5080000,경상북도 구미시
성불산자연휴양림,충청북도,공유림,58,242,"입장료           어린이 1,000원(단체 500원)           청소년 1,500원(단체1,000원)           군인 1,500원(단체1,000원)           일반 2,000원(단체1,500원)           단체는 30명 이상주차료경형: 1,500원, 중소형: 3,000원, 대형: 5,000원, 숙박시설 사용자 무료",Y,"숲속의집A, 숲속의집B, 산림문화휴양관,숲관광메가시티,생태숲학습관,한옥체험관,생태공원,미선향테마파크무인카페, 수석전시관 등",충청북도 괴산군 괴산읍 충민로기곡길 78,괴산군산림녹지과,043-830-2679,https://www.foresttrip.go.kr/indvz/main.do?hmpgId=ID02030070,36.8080470124,127.8467687642,2021-10-20,4460000,충청북도 괴산군
양을산산림욕장,전라남도,공유림,150000,,무료,N,"유아숲체험원, 화장실, 생태학습장, 실내교육장",전라남도 목포시 상동 산34-3,목포시청,061-270-8178,,34.8213604,126.4075568,2021-10-20,4800000,전라남도 목포시
서귀포자연휴양림,제주특별자치도,국유림,2550000,1500,일반 1000원. 청소년 600원. 어린이 300원,Y,숲속의집. 산림휴양관. 세미나실. 야영장. 생태탐방코스 등,제주특별자치도 서귀포시 1100로 882 (대포동),서귀포시청,064-760-3063,https://www.foresttrip.go.kr/indvz/main.do?hmpgId=ID02030013,33.31150025,126.458761,2021-10-20,6520000,제주특별자치도 서귀포시
붉은오름자연휴양림,제주특별자치도,공유림,1900000,1500,어른 1000원. 청소년·군인 600원,Y,숲속의집. 산림문화휴양관. 세미나실. 오름등반로. 야외공연장 등,제주특별자치도 서귀포시 표선면 남조로 1487-73,서귀포시청,064-760-3482,https://www.foresttrip.go.kr/indvz/main.do?hmpgId=ID02030014,33.40142958,126.6756716,2021-10-20,6520000,제주특별자치도 서귀포시
좌구산자연휴양림,충청북도,공유림,730000,250,없음,Y,숲속의 집/ 황토집/ 별무리하우스/ 병영하우스/ 줄타기/ 썰매장/ 숲속모험시설/ 좌구산 숲 명상의 집/ 명상구름다리/ 좌구산천문대 등,충청북도 증평군 증평읍 솟점말길 107,증평군 휴양공원사업소,043-835-4551,https://jpjwagu.foresttrip.go.kr,36.7055680385,127.6511206314,2021-05-28,5570000,충청북도 증평군
비슬산자연휴양림,대구광역시,공유림,1000000,285,없음,Y,"숲속의집,통나무집,야영장,반딧불이전기차등",대구광역시 달성군 유가읍 일연선사길 99,대구광역시 달성군시설관리공단,053-659-4400,http://bisulsan.dssiseol.or.kr/bisulsan/html/main.html,35.69001083,128.5129017,2021-07-22,3480000,대구광역시 달성군
화원자연휴양림,대구광역시,공유림,720000,115,없음,Y,"숲속의집,산림문화휴양관,산림욕장,전망데크등",대구광역시 달성군 화원읍 화원휴양림길 126,대구광역시 달성군시설관리공단,053-659-4455,http://hwawon.dssiseol.or.kr/hwawon/html/main.html,35.77179173,128.5367385,2021-07-22,3480000,대구광역시 달성군
만수산자연휴양림,충청남도,공유림,1300000,150,일반1200+청소년900+군인900+어린이600,Y,숲속의집,충청남도 부여군 외산면 휴양로 107,부여군시설관리공단,041-832-6561,https://www.foresttrip.go.kr/indvz/main.do?hmpgId=ID02030007,36.33854208,126.7119325,2021-07-15,4570000,충청남도 부여군
유치자연휴양림,전라남도,공유림,53.7,2000,비수기(1000원)+성수기(2000원),Y,"숲속의집, 야영데크, 물놀이장",전라남도 장흥군 유치면 휴양림길 154,전라남도 장흥군청,061-863-6350,www.jangheung.go.kr/yuchi,34.76806521,126.8323492,2021-11-10,4910000,전라남도 장흥군
운주산승마자연휴양림,경상북도,공유림,699532,,무료,Y,"숲속의집, 산림문화휴양관 등",경상북도 영천시 임고면 승마휴양림길 105,경상북도 영천시청,054-330-6287,https://www.foresttrip.go.kr/indvz/main.do?hmpgId=ID02030081,36.03510258,128.996734,2021-11-08,5100000,경상북도 영천시
보현산자연휴양림,경상북도,공유림,51954,200,무료,Y,"숲속의집, 산림문화휴양관 등",경상북도 영천시 화북면 배나무정길 334,경상북도 영천시청,054-336-6618,https://bhforest.foresttrip.go.kr,36.14210706,128.9781098,2021-11-08,5100000,경상북도 영천시
송이밸리자연휴양림,강원도,공유림,43.66,100,없음,Y,송이밸리자연휴양림,강원도 양양군 양양읍 고노동길 98-50,강원도 양양군청,033-670-2644,https://www.foresttrip.go.kr/indvz/main.do?hmpgId=ID02030049,38.0540066720,128.6214924,2021-11-10,4350000,강원도 양양군
서운산자연휴양림,경기도,공유림,833571,218,무료,Y,"숲속의집, 오토캠핑장, 야영장, 카라반",경기도 안성시 금광면 배티로 185-39,경기도 안성시청,031-678-2913,https://www.anseong.go.kr/tourPortal/anseongforest/main.do,36.94238317,127.313722,2021-10-31,4080000,경기도 안성시
오도산 자연휴양림,경상남도,공유림,2700000,1000,1000,Y,숲속의집+청소년수련관+야영데크+취사장+관리사무소+물놀이장 등,경상남도 합천군 봉산면 오도산휴양로 398,경상남도 합천군청,055-930-3733,https://www.foresttrip.go.kr/indvz/main.do?hmpgId=ID02030068,35.66904355,128.0538747,2021-11-09,5480000,경상남도 합천군
영인산자연휴양림,충청남도,공유림,1230000,341,"개인 어른 2,000원 청소년 1,500원 어린이 1,000원  단체 어른 1,600원 청소년 1,200원 어린이 800원",Y,"숲속의집, 야영장,어드벤쳐시설",충청남도 아산시 영인면 아산온천로 16-26,아산시시설관리공단,041-538-1958,http://forest.asanfmc.or.kr,36.84059456,126.9500195,2021-10-26,4520000,충청남도 아산시
만인산자연휴양림,대전광역시,공유림,1850000,5000,무료,Y,"숲속교실,야외무대,목공체험장",대전광역시 동구 산내로 106,대전광역시 공원관리사업소,042-270-8655,http://www.daejeon.go.kr/par/index.do,36.2021806,127.4551104,2021-10-27,6300000,대전광역시
장태산자연휴양림,대전광역시,공유림,820000,6000,무료,Y,"생태연못,교과서식물원,산림문화휴양관",대전광역시 서구 장안로 461,대전광역시 공원관리사업소,042-270-7883,http://www.jangtaesan.or.kr/,36.21596742,127.3412777,2021-10-27,6300000,대전광역시
구수곡자연휴양림,경상북도,공유림,2000000,950,무료,Y,숲속의 집,경상북도 울진군 북면 십이령로 2721,울진군,054-783-2241,https://www.foresttrip.go.kr,37.06212162,129.2929279,2021-10-27,5250000,경상북도 울진군
계명산자연휴양림,충청북도,공유림,3630791,149,무료,Y,숲속의집 단체숙소 연립동 치유센터 산책로 등,충청북도 충주시 충주호수로 1170,충청북도 충주시청(위탁운영),043-850-7313,https://www.foresttrip.go.kr,36.97931793,127.9950865,2021-12-31,6430000,충청북도
옥전자연휴양림,충청북도,공유림,1090000,42,무료,Y,숲속의 집 농산물판매장 등,충청북도 제천시 봉양읍 옥전길 195,충청북도 제천시청,043-641-6527,https://www.foresttrip.go.kr,37.174689,128.089444,2021-12-31,6430000,충청북도
충북알프스자연휴양림,충청북도,공유림,902058,287,무료,Y,숲속의집세미나실목공예체험장 등,충청북도 보은군 산외면 속리산로 1880,충청북도 보은군청,043-543-1472,https://www.foresttrip.go.kr,36.57319259,127.7858718,2021-12-31,6430000,충청북도
속리산숲체험휴양마을,충청북도,공유림,1100000,268,무료,Y,숲속의집 방문자종합센터 수영장 찜질방 식당 산책로 등,충청북도 보은군 속리산면 속리산로 596,충청북도 보은군청,043-540-3220,https://www.foresttrip.go.kr,36.49245548,127.7924743,2021-12-31,6430000,충청북도
장령산자연휴양림,충청북도,공유림,2008003,437,주차료) 대형 10000원 + 소형 3000원 + 경차 1000원,Y,숲속의집산림문화휴양관야영장야외물놀이장 등,충청북도 옥천군 군서면 장령산로 519,충청북도 옥천군청,043-730-3491,https://www.foresttrip.go.kr,36.24486737,127.5547497,2021-12-31,6430000,충청북도
민주지산자연휴양림,충청북도,공유림,1800000,352,어른 1000원 + 청소년 500원 + 어린이 300원,Y,숲속의집 식당 황토찜질방 학습관 산림문화휴양관 치유센터 야영장 족구장 등,충청북도 영동군 용화면 휴양림길 60,충청북도 영동군청(위탁운영),043-740-3437,https://www.foresttrip.go.kr,36.05313182,127.8243888,2021-12-31,6430000,충청북도
남해편백자연휴양림,경상남도,국유림,2270000,1000,성인 1000원,Y,"생태숲,숲속의집 등",경상남도 남해군 삼동면 금암로 658,함양국유림관리소,055-867-7881,www.foresttrip.go.kr/indvz/main.do?hmpgId=0192,34.75216391,128.0201316,2022-03-07,5430000,경상남도 남해군
칼봉산자연휴양림,경기도,공유림,2640000,160,0,Y,"숲속의집, 산림휴양관, 생태숲, 생태체험학습장, 야영장 등",경기도 가평군 가평읍 경반안로 454,가평군 시설관리공단,031-8078-8061,www.kalbong.com,37.83611811,127.4653871,2022-03-03,4160000,경기도 가평군
변산자연휴양림,전라북도,국유림,311000,250,숙박비 52000원+154000원,Y,"숲속의집, 휴양관, 체험교실, 물놀이장(현재 미운영)",전라북도 부안군 변산면 변산로 3768,국립자연휴양림관리소,063-581-9977,https://www.foresttrip.go.kr/indvz/main.do?hmpgId=0189,35.58287781,126.523728,2022-02-25,4790000,전라북도 부안군
신안자연휴양림,전라남도,국유림,302000,561,무료,Y,"산림문화휴양관, 캠핑장, 관리동, 취사장, 샤워장, 테마공원",전라남도 신안군 자은면 자은서부2길 508-77,신안군청,061-240-3265,,34.8793261192,125.9961150082,2020-04-28,5010000,전라남도 신안군
거창 항노화 힐링랜드 자연휴양림,경상남도,공유림,500000,2000,"3000원(거창사랑상품권 2,000원 환급",Y,"산림휴양관, 숲속의집, 관리사무소, 출렁다리, 전망데크",경상남도 거창군 가조면 의상봉길 830,거창군,055-940-7930,https://wellnesstour.co.kr/main/main.do,35.73662049,128.04089827,2021-08-31,5470000,경상남도 거창군
금원산자연휴양림,경상남도,공유림,1300000,600,일반1000원+단체800원,Y,"숲속의집, 산림문화휴양관, 숲속수련장, 야영장, 야외쉼터, 공연장, 관찰데크 등",경상남도 거창군 위천면 금원산길 554-83,경남산림환경연구원,055-254-3973,https://www.foresttrip.go.kr/pot/fi/dr/selectDrctnsDtlView.do?hmpgId=ID02030077&menuId=002007,35.72923530,127.78986810,2021-08-31,5470000,경상남도 거창군
설매재자연휴양림,경기도,사유림,349568,288,유료,Y,"숲속의집,산림휴양관,이벤트홀, 데크야영 등",경기도 양평군 옥천면 용천로 510,개인(양현철),031-772-5955,www.snrf.co.kr,37.556802,127.5093574879,2020-02-26,6410000,경기도
양평쉬자파크,경기도,공유림,330834,538,유료(주차료 없음),Y,"치유의숲,치유의집,초가원,산림교육센터, 치유센터,공원관리소, 유아숲체험원,까페동 등",경기도 양평군 양평읍 쉬자파크길 193,경기도 양평군청,031-770-1009,http://www.ypforest.com/,37.5112235372,127.5331977760,2020-02-26,6410000,경기도
고대산자연휴양림,경기도,국유림,31.4,183,5~10만원,Y,숲속의집 산림문화휴양관 숲속수련원 방문자센터 숲속야영장 등,경기도 연천군 신서면 고대산길 84-79,연천군,031-834-2200,https://tour.yeoncheon.go.kr:8443/web/cms/?MENUMST_ID=11219,38.2112541872,127.1507035998,2020-06-16,6410000,경기도
용인자연휴양림,경기도,공유림,1622705,1800,"개인(성인:2000원, 청소년:1000원, 어린이:600원), 단체(성인:1600원, 청소년:800원, 어린이:400원)",Y,"숲속의집, 숲속체험관, 목조주택, 생태습지, 야영장, 잔디광장, 짚라인, 목재문화체험관 등",경기도 용인시 처인구 모현읍 초부로 220,용인시/용인도시공사위탁운영,031-336-0040,www.yonginforest.net,37.3148737194,127.2678441632,2020-06-16,6410000,경기도
바라산자연휴양림,경기도,공유림,2085484,470,없음,Y,"숲속의집,야영장,치유의숲,체험의숲,산림문화휴양관",경기도 의왕시 바라산로 84,의왕도시공사,031-8086-7482,http://barasan.foresttrip.go.kr/,37.3731008542,127.0193169914,2020-03-12,6410000,경기도
천보산자연휴양림,경기도,공유림,1165686,80,"일반:2,000원, 단체:1,400원",Y,"숲속의집, 휴양관, 야영장 등",경기도 포천시 원동교길 309,포천시,031-538-3554,임시휴장중,37.8557646959,127.1190876904,2020-05-08,6410000,경기도
국망봉자연휴양림,경기도,사유림,2554814,60,"관람객:5,000원, 등산객:2,000원",Y,"통나무 집, 캠핑장 등",경기도 포천시 이동면 늠바위길 207-28,김봉일,031-532-0014,www.kookmang.co.kr,38.02891868,127.3962681,2020-05-08,6410000,경기도
군위장곡자연휴양림,경상북도,공유림,2618706,300,"일반 : 어른1,000원+청소년·군인 700원+어린이 500원, 단체 : 어른  700원+청소년·군인 500원+어린이 500원",Y,"숲속의집, 종합산막, 산림문화휴양관, 산림생태험학습관, 자생식물원, 물놀이장",경상북도 군위군 고로면 장곡휴양림길 195,군위군청,054-380-6317,https://www.foresttrip.go.kr/indvz/main.do?hmpgId=ID02030064,36.1305922660,128.8376371675,2021-10-26,5140000,경상북도 군위군
거제자연휴양림,경상남도,공유림,329490,600,o,Y,"숲속의집,휴양관",경상남도 거제시 동부면 거제중앙로 325,거제시청,055-639-8115,https://www.foresttrip.go.kr/indvz/main.do?hmpgId=ID02030059,34.78569918,128.6259431,2021-10-27,6480000,경상남도
대운산자연휴양림(양산),경상남도,공유림,2143390,900,x,Y,"숲속의집,휴양관",경상남도 양산시 탑골길 208-124,양산시설관리공단,055-379-8670,https://www.foresttrip.go.kr/indvz/main.do?hmpgId=ID02030038,35.4136954,129.2117158,2021-10-27,6480000,경상남도
화왕산자연휴양림(창녕),경상남도,공유림,324307,500,o,Y,"숲속의집,휴양관",경상남도 창녕군 고암면 청간길 128-126,창녕군청,055-533-2332,https://www.foresttrip.go.kr/indvz/main.do?hmpgId=ID02030015,35.54693079,128.5673145,2021-10-27,6480000,경상남도
구재봉자연휴양림(하동),경상남도,공유림,433890,300,o,Y,"숲속의집,휴양관",경상남도하동군 적량면 중서길 60-81,하동군청,070-8855-8011,https://www.foresttrip.go.kr/indvz/main.do?hmpgId=ID02030072,35.12895794,127.7440937,2021-10-27,6480000,경상남도
하동편백자연휴양림,경상남도,공유림,307950,300,o,Y,"숲속의집,휴양관",경상남도 하동군 옥종면 돌고지로 1088-51,하동군청,070-8994-0717,https://www.foresttrip.go.kr/indvz/main.do?hmpgId=ID02030103,35.18675022,127.8421218,2021-10-27,6480000,경상남도
한방자연휴양림(산청),경상남도,공유림,1376062,160,x,Y,"숲속의집,휴양관",경상남도 산청군 금서면 동의보감로 555번길 186,산청군청,055-970-6951,https://www.foresttrip.go.kr/indvz/main.do?hmpgId=ID02030037,35.43403584,127.8236808,2021-10-27,6480000,경상남도
용추자연휴양림(함양),경상남도,공유림,1590000,500,x,Y,"숲속의집,휴양관",경상남도 함양군 안의면 상원리 1155-1,함양군청,055-963-8702,https://www.foresttrip.go.kr/indvz/main.do?hmpgId=ID02030047,35.70378274,127.7539398,2021-10-27,6480000,경상남도
대봉산자연휴양림(함양),경상남도,공유림,959055,300,x,Y,"숲속의집,휴양관",경상남도 함양군 병곡면 병곡지곡로 333,함양군청,055-964-1090,https://www.foresttrip.go.kr/indvz/main.do?hmpgId=ID02030046,35.57794015,127.7150289,2021-10-27,6480000,경상남도
산삼자연휴양림(함양),경상남도,공유림,670000,300,x,Y,"숲속의집,휴양관",경상남도 함양군 서상면 가르내길 202-1,함양군청,055-964-9886,https://www.foresttrip.go.kr/indvz/main.do?hmpgId=ID02030048,35.69762459,127.6584297,2021-10-27,6480000,경상남도
금원산자연휴양림(거창),경상남도,공유림,1300000,685,o,Y,"숲속의집,휴양관",경상남도 거창군 위천면 금원산길 471-27,거창군청,055-254-3971,https://www.foresttrip.go.kr/indvz/main.do?hmpgId=ID02030077,35.72617571,127.795727,2021-10-27,6480000,경상남도
오도산자연휴양림(합천),경상남도,공유림,2700000,1000,o,Y,"숲속의집,휴양관",경상남도 합천군 봉산면 오도산휴양로 398,합천군청,055-930-3733,https://www.foresttrip.go.kr/indvz/main.do?hmpgId=ID02030068,35.66904518,128.0538745,2021-10-27,6480000,경상남도
남해편백자연휴양림,경상남도,국유림,2267840,305,o,Y,"숲속의집,휴양관",경상남도 남해군 삼동면 금암로 658,산림청,055-867-7881,https://www.foresttrip.go.kr/indvz/main.do?hmpgId=0192,34.75216391,128.0201321,2021-10-27,6480000,경상남도
지리산자연휴양림(함양),경상남도,국유림,1420000,550,o,Y,"숲속의집,휴양관",경상남도 함양군 마천면 음정길 152,산림청,055-963-8133,https://www.foresttrip.go.kr/indvz/main.do?hmpgId=0190,35.34644465,127.6430043,2021-10-27,6480000,경상남도
원동자연휴양림(양산),경상남도,사유림,747070,1400,o,Y,오토캠핑장,경상남도 양산시 원동면 늘밭로 64,개인,0507-1401-583,https://wondongforest.modoo.at/,35.39881801,128.9348445,2021-10-27,6480000,경상남도
덕원자연휴양림(하동),경상남도,사유림,1378675,300,o,Y,"숲속의집,휴양관",경상남도 하동군 옥종면 옥단로 1443-327,개인,055-884-0650,https://www.foresttrip.go.kr/indvz/main.do?hmpgId=ID04030008,35.22915471,127.8552761,2021-10-27,6480000,경상남도
지리산마더힐자연휴양림(산청),경상남도,사유림,436668,100,x,Y,"숲속의집,휴양관",경상남도 산청군 시천면 지리산대로 496-101,개인,055-974-2757,https://www.foresttrip.go.kr/indvz/main.do?hmpgId=ID04030006,35.2886177,127.7507425,2021-10-27,6480000,경상남도
반딧불 자연휴양림,전라북도,공유림,31110,300,없음,Y,통나무집+목교+평상+평의자,전라북도 무주군 설천면 청량리 산 77,전라북도 무주군청 시설사업소,063-320-5666,https://tour.muju.go.kr/bandiland/contents.do?key=399,36.01035711,127.7581607,2022-02-23,4740000,전라북도 무주군
강릉임해자연휴양림,강원도,공유림,1160000,105,비수기 평일[(6인실)70000원+(5인실)65000원+(4인실)50000원]+비수기 주말[(6인실)120000원+(5인실)110000원+(4인실)90000원]+성수기[(6인실)140000원+(5인실)130000원+(4인실)100000원],Y,숙박동(하늘동+구름동+바다동+숲속동)+숲속의집,강원도 강릉시 강동면 율곡로 1715-85,강릉관광개발공사,033-644-9483,https://www.foresttrip.go.kr/indvz/main.do?hmpgId=ID02030100,37.71856556,128.9985453,2022-02-21,4200000,강원도 강릉시
천천와룡자연휴양림,전라북도,국유림,577000,1200,없음,Y,"숲속의집, 야영장, 물놀이장, 산림욕장 등",전라북도 장수군 천천면 비룡로 632,전라북도 장수군청,063-350-2477,https://www.foresttrip.go.kr/indvz/main.do?hmpgId=ID02030084,35.67621776,127.4772192,2022-02-23,4750000,전라북도 장수군
방화동자연휴양림,전라북도,국유림,1016000,2000,없음,Y,"숲속의집, 산림욕장, 인공폭포 등",전라북도 장수군 번암면 방화동로 778,전라북도 장수군청,063-350-2475,https://www.foresttrip.go.kr/indvz/main.do?hmpgId=ID02030082,35.59064179,127.5268761,2022-02-23,4750000,전라북도 장수군
팔공산금화자연휴양림,경상북도,공유림,31,216,0원,Y,"숲속의집, 카라반, 교육관, 휴양관, 야영데크",경상북도 칠곡군 가산면 가산로 323,경상북도 문화관광공사,054-971-1551,http://palgong.gb.go.kr,36.05171899,128.5553512,2022-02-21,6470000,경상북도
안동호반자연휴양림,경상북도,공유림,52,258,0원,Y,"호반하우스,산림휴양관,숲속의집,전통가옥",경상북도 안동시 도산면 월천길 100-7,경상북도 문화관광공사,054-855-3371,http://huyang.gb.go.kr,36.70343807,128.8288547,2022-02-21,6470000,경상북도
금강자연휴양림,충청남도,공유림,1840000,226,"1,500원",Y,"숲속의 집,휴양관",세종특별자치시 금남면 산림박물관길110,산림자원연구소,041-635-7400,keumkang.chungnam.go.kr,36.43769938,127.2327429,2021-06-16,6440000,충청남도
절물자연휴양림,제주특별자치도,국유림,300,2000,일반1000원+청소년600원+어린이300원,Y,휴양림.수련장.숙박등,제주특별자치도 제주시 명림로 584,제주시청,064-728-1510,https://www.foresttrip.go.kr/indvz/main.do?hmpgId=ID02030053,33.44004881,126.6252034,2021-07-28,6510000,제주특별자치도 제주시
교래자연휴양림,제주특별자치도,공유림,230,1500,어른1000원+청소년·군인600원,Y,휴양림.숙박.공연장등,제주특별자치도 제주시 조천읍 남조로 2023,제주특별자치도청,064-783-7482,http://www.jeju.go.kr/jejustoneparkforest/index.htm,33.45136376,126.6567109,2021-07-28,6510000,제주특별자치도 제주시
흑석산자연휴양림,전라남도,공유림,500000,700,2000,Y,"숲속의집(객식), 유아숲체험원, 족욕장, 수변쉼터 등",전라남도 해남군 계곡면 산골길 306,해남군청산림녹지과,061-530-5738,https://www.foresttrip.go.kr/indvz/main.do?hmpgId=ID02030045,34.6709346791,126.6169966726,2021-08-12,4930000,전라남도 해남군
백야자연휴양림,충청북도,공유림,370000,310,무료,Y,숙박시설 캠핑장 물놀이장 산책로 화장실 등,충청북도 음성군 금왕읍 백야로 461-97,충청북도 음성군청,043-878-2556,https://www.foresttrip.go.kr,36.95683852,127.6096498,2021-12-31,6430000,충청북도
소선암자연휴양림,충청북도,공유림,633137,312,무료,Y,통나무집 숲속의집 산림문화휴양관 산림복합휴양관,충청북도 단양군 단성면 대잠2길 15,충청북도 단양군청(위탁운영),043-422-7839,https://www.foresttrip.go.kr,36.91922142,128.3123127,2021-12-31,6430000,충청북도
소백산자연휴양림,충청북도,공유림,1899046,236,어른 3000원 + 군인/청소년 2000원 + 어린이 1000원 + 6세이하 65세이상 무료,Y,화전민촌 정감록 명당체험마을 숲속의집 산림문화휴양관 세미나실 네트어드벤쳐 승마장 전망대 전시실 그라운드골프장 북카페 산책로,충청북도 단양군 영춘면 하리방터길 180,충청북도 단양군청,043-423-3117,https://www.foresttrip.go.kr,37.06069296,128.4673084,2021-12-31,6430000,충청북도
조령산자연휴양림,충청북도,공유림,7662350,218,무료,Y,숲속의집 복합휴양관 백두대간 생태교육장 옛길 물놀이장 숲속놀이터 산책로 등,충청북도 괴산군 연풍면 새재로 1795,충청북도 산림환경연구소,043-833-7994,https://www.foresttrip.go.kr,36.81234006,128.0462438,2021-12-31,6430000,충청북도
용문산자연휴양림,경기도,공유림,870852,300,무료(주차료 없음),Y,"행복마루, 솔마루, 하늘마루, 산림휴양관,숲속의집,생태행복관,야영데크 등",경기도 양평군 양평읍 약수사길 78-14,경기도 양평군청,031-775-4005,www.swijapark.com,37.516048,127.519421,2021-12-30,4170000,경기도 양평군
양평쉬자파크,경기도,공유림,330834,538,유료(주차료 없음),Y,"치유의숲,치유의집,초가원,산림교육센터, 치유센터,공원관리소, 유아숲체험원,까페동 등",경기도 양평군 양평읍 쉬자파크길 193,경기도 양평군청,031-770-1009,http://www.ypforest.com/,37.511222,127.533196,2021-12-30,4170000,경기도 양평군
설매재자연휴양림,경기도,사유림,349568,288,유료,Y,"숲속의집,산림휴양관,이벤트홀, 데크야영 등",경기도 양평군 옥천면 용천로 510,개인(양현철),031-772-5955,https://www.foresttrip.go.kr/indvz/main.do?hmpgId=ID04030004,37.556802,127.509356,2021-12-30,4170000,경기도 양평군
축령산,전라남도,국유림,3730000,900,없음,N,"치유의숲 안내센터, 전망대 등",전라남도 장성군 북이면 추암로 555,치유의숲안내센터,061-393-1777,,35.360934,126.728553,2021-12-28,4980000,전라남도 장성군
방장산자연휴양림,전라남도,국유림,70000,500,일반 1000원+단체 800원,Y,"숲속의 집, 산림문화휴양관, 세미나실, 숲속공예마을(체험) 등",전라남도 장성군 북이면 방장로 353,국립자연휴양림관리소,061-394-5523,https://www.foresttrip.go.kr/indvz/main.do?hmpgId=0181,35.44405218,126.7514053,2021-12-28,4980000,전라남도 장성군
성주산자연휴양림,충청남도,공유림,456,2000,성인1000원+청소년800원+군인800원+어린이400원,Y,성주산자연휴양림,충청남도 보령시 성주면 화장골길 57-228,충청남도 보령시 산림공원과,041-934-7133,https://www.foresttrip.go.kr/indvz/main.do?hmpgId=ID02030078,36.33256882,126.6639659,2021-12-27,4510000,충청남도 보령시
횡성자연휴양림,강원도,사유림,498263,300,숙박시설 이용객만 입장 가능(별도입장료 : 없음),Y,"숲속의집, 산림문화휴양관",강원도 횡성군 갑천면 정포로 430번길 113,사유휴양림(대표 : 이호준),033-343-3392,http://www.hsrf.co.kr,37.53904383,128.1118525,2021-12-25,4260000,강원도 횡성군
주천강자연휴양림,강원도,사유림,2296100,400,숙박시설 이용객만 입장 가능(별도입장료 : 없음),Y,"숲속마을, 산골마을, 강변마을, 숲속학교, 황토별장",강원도 횡성군 둔내면 강변로 영랑6길 115,사유휴양림(대표 : 김문기),033-345-7575,http://jucheon.com/,37.4606019,128.2034233,2021-12-25,4260000,강원도 횡성군
