축제명,개최장소,축제시작일자,축제종료일자,축제내용,주관기관,주최기관,후원기관,전화번호,홈페이지주소,관련정보,소재지도로명주소,소재지지번주소,위도,경도,데이터기준일자,제공기관코드,제공기관명
제1회 대청호 벚꽃축제,대전광역시 동구 신상동 282번지 일원,2019-04-05,2019-04-07,"벚꽃축제, 벚꽃가요제, 벚꽃길 걷기대회 등",대전광역시 동구청(대행사: 대전문화방송),대전광역시 동구청,,042-251-6685,http://www.donggu.go.kr,,,대전광역시 동구 신상동 282,36.3535904387,127.4980431419,2021-12-17,3640000,대전광역시 동구
코로나19 확산 방지를 위해 공연행사가 취소되었으니 향후 일정이 정해지는대로 업데이트하겠습니다.,수영구 광안리해변 일원,2021-12-31,2021-12-31,코로나19 확산 방지를 위해 공연행사가 취소되었으니 향후 일정이 정해지는대로 업데이트하겠습니다.,수영구,수영구축제위원회,부산시,051-610-4062,www.suyeong.go.kr/eobang,코로나로 인한 행사취소,부산광역시 수영구 남천동로100,부산광역시 수영구 남천동148-15,35.14537016,129.1123694,2021-12-21,3380000,부산광역시 수영구
강감찬축제,온라인 개최,2021-10-14,2021-10-17,"강감찬 장군 출병식 및 전승행렬 거리 퍼레이드, 고려마을 테마 체험부스, 강감찬 장군 추모제향 등 다채로운 행사 진행",관악구,관악구,,02-879-5603,http://www.gwanak.go.kr/html/gang/sub/sub.html,,"서울특별시 관악구 관악로 145, 교육사업과(관악구청)",서울특별시 관악구 봉천동 1570-1,37.47823402,126.9515012,2021-12-15,3200000,서울특별시 관악구
천만송이 국화축제,중앙체육공원,2022-10-28,2022-11-06,국화축제,익산시 농업기술센터,익산시,익산시,063-859-4977,https://www.iksan.go.kr/gukhwa/index.iksan,"국화전시,국화우수작품전시,농산물판매장,체험장",전라북도 익산시 하나로 322,,35.94972951,126.9861274,2021-12-14,4680000,전라북도 익산시
담양대나무축제,죽녹원 및 관방제림 일원,2022-05-01,2022-05-05,"대나무 관련 전시, 체험, 공연, 판매 등",(사)담양대나무축제위원회,전라남도 담양군청,문화체육관광부+전라남도+한국관광공사,061-380-3152,www.bamboofestival.co.kr,,전라남도 담양군 담양읍 메타프로방스 1길 17,전라남도 담양군 담양읍 학동리 586-1,35.32260525,127.0018114,2022-01-13,4850000,전라남도 담양군
담양산타축제,담양 원도심 및 메타프로방스 일원,2022-12-17,2022-12-31,"크리스마스거리조성, 크리스마스마켓 운영 등",담양산타축제추진위원회,전라남도 담양군청,,061-380-3152,,,전라남도 담양군 담양읍 메타프로방스 1길 17,전라남도 담양군 담양읍 학동리 586-1,35.32260525,127.0018114,2022-01-13,4850000,전라남도 담양군
추월산벚꽃축제,용면 추월산광장 일원,2022-04-09,2022-04-10,"벚꽃노래자랑, 특산품판매 등",용면청년회,전라남도 담양군청,,061-380-3152,,,전라남도 담양군 용면 추월산로 369,전라남도 담양군 용면 추성리 478-1,35.36483985,126.9872053,2022-01-13,4850000,전라남도 담양군
창평전통음식문화축제,창평슬로시티 일원,2022-10-26,2022-10-28,"슬로푸드전시, 체험, 판매 등",창평면주민자치위원회,전라남도 담양군청,,061-380-3152,,,전라남도 담양군 창평면 돌담길 56-24,전라남도 담양군 창평면 창평리 113-1,35.23525084,127.017861,2022-01-13,4850000,전라남도 담양군
가로수사랑음악회,가로수사랑군민연대,2022-11-05,2022-11-06,"지역출신가수공연, 특집라디오공개방송 등",담양가로수사랑군민연대,전라남도 담양군청,,061-380-3152,,,전라남도 담양군 담양읍 지침3길 7-5,전라남도 담양군 담양읍 지침리 132-28,35.31617363,126.9840063,2022-01-13,4850000,전라남도 담양군
고서포도축제,고서면 증암천변 일원,2023-08-19,2023-08-21,특산품 홍보 및 판매,고서포도축제추진위원회,전라남도 담양군청,,061-380-3152,,,전라남도 담양군 고서면 가사문학로 325,전라남도 담양군 고서면 동운리 583-4,35.22370105,126.9729391,2022-01-13,4850000,전라남도 담양군
풍암골 신암마을 당산제,풍암 제7어린이공원내 (풍암동1129),2022-02-15,2022-02-15,(코로나19로 인한 취소) 민속고유 명절인 대보름을 맞이하여 사라져가는 전통세시풍속인 당산제를 재현하여 지역 주민들의 평안과 발전 및 풍요다산을 기원,광주광역시 서구,미정,광주광역시,062-350-4988,https://www.seogu.gwangju.kr/menu.es?mid=a70302000000,,,광주광역시 서구 풍암동 1129,35.12401153,126.8815859,2022-01-28,3600000,광주광역시 서구
서창만드리 풍년제,서구 서창동 한옥문화관 일원,2022-07-25,2022-08-12,"의식행사, 들노래 만드리 재현, 문화예술공연, 전통문화 체험부스 운영 등",광주광역시 서구,미정,광주광역시,062-350-4988,https://www.seogu.gwangju.kr/menu.es?mid=a70302000000,,광주광역시 서구 서창발산길 10(서창동),광주광역시 서구 서창동 424-1,35.1071746,126.8231387,2022-01-28,3600000,광주광역시 서구
영산강 서창들녁 억새축제,영산강(극락교~서창교 3.5km)일원,2022-10-07,2022-10-10,"공식행사, 포토존, 비대면 공연, 온라인전시, 부대행사 등",광주광역시 서구,광주광역시 서구,"광주광역시, 광주환경공단",062-350-4792,http://www.sgfesta.co.kr,https://www.seogu.gwangju.kr/menu.es?mid=a70302000000,광주광역시 서구 서창둑길 377(벽진동),광주광역시 서구 벽진동 505-1,35.13849504,126.828739,2022-01-28,3600000,광주광역시 서구
해맞이 행사,오봉산 등,2022-01-01,2022-01-01,"새해 소원빌기 행사, 새해안녕기원행사,해맞이공연, 먹거리제공 등",북구청 문화예술과,공모사업,,,,,,대구광역시 북구 구암동 349,35.93240689,128.567486,2022-01-28,3450000,대구광역시 북구
금호강 정월대보름축제,산격대교 하단,2022-02-15,2022-02-15,"달집태우기, 달맞이 행사 등",북구청 문화예술과,공모사업,,,,매년 정월대보름,,대구광역시 북구 산격동 1477-1,35.90892344,128.6033802,2022-01-28,3450000,대구광역시 북구
전국청소년댄스페스티벌 꿈을 향한 무승부,의정부시청소년수련관,2022-09-17,2022-09-17,퍼포먼스 댄스경연대회 및 축하공연 등,의정부시청소년수련관+기호일보,의정부시청소년재단,,031-828-9544,http://www.uiyouth.or.kr,홈페이지 참조,경기도 의정부시 의정로 27,경기도 의정부시 의정부동 352,37.73517724,127.0338894,2022-02-17,3820000,경기도 의정부시
의정부시 청소년 진로페스티벌,의정부시청소년수련관,2022-05-23,2022-05-27,"직업인, 대학생 멘토 인터뷰 및 E-sports 대회 뷰티아카데미등",의정부시청소년수련관,의정부시청소년재단,,031-828-9558,http://www.youthexpo.or.kr,홈페이지 참조,경기도 의정부시 의정로 27,경기도 의정부시 의정부동 352,37.73517724,127.0338894,2022-02-17,3820000,경기도 의정부시
의정부 청소년 영화제,의정부시청소년수련관,2022-11-05,2022-11-05,청소년 영화 상영 및 시상식,의정부시청소년수련관,의정부시청소년재단,,031-828-9557,https://uyff.modoo.at,홈페이지 참조,경기도 의정부시 의정로 27,경기도 의정부시 의정부동 352,37.73517724,127.0338894,2022-02-17,3820000,경기도 의정부시
청소년 푸른별 콘서트,의정부시청소년수련관,2022-12-01,2022-12-01,청소년 동아리 공연 및 인기가수 축하공연,의정부시청소년재단+경인일보,의정부시,,031-828-9542,http://www.uiyouth.or.kr,홈페이지 참조,경기도 의정부시 의정로 27,경기도 의정부시 의정부동 352,37.73517724,127.0338894,2022-02-17,3820000,경기도 의정부시
청소년안전망 페스티발,의정부시청소년수련관,2022-05-21,2022-05-21,"기념식, 문화공연, 부스운영, 체험 전시",의정부시청소년상담복지센터,의정부시청소년재단,,031-828-9563,http://www.uiyouth.or.kr,홈페이지 참조,경기도 의정부시 의정로 27,경기도 의정부시 의정부동 352,37.73517724,127.0338894,2022-02-17,3820000,경기도 의정부시
청소년 행복주간 지역마을축제(동부권역),부용천(새말역),2022-05-24,2022-05-24,청소년 유관기관 부스 및 체험 프로그램 운영,새말청소년문화의집,의정부시청소년재단,,031-828-9583,http://www.uiyouth.or.kr,홈페이지 참조,경기도 의정부시 장곡로 551,경기도 의정부시 신곡동 815-1,37.7488377,127.0637621,2022-02-17,3820000,경기도 의정부시
청소년 행복주간 지역마을축제,의정부예총,2022-05-25,2022-05-25,"청소년 체험부스, 청소년 공연",흥선청소년문화의집,흥선청소년문화의집,,031-828-9593,http://www.uiyouth.or.kr,홈페이지 참조,경기도 의정부시 의정로80번길 18,경기도 의정부시 의정부동 477-1,37.73969683,127.0358325,2022-02-17,3820000,경기도 의정부시
신창동 어울림축제,신창동 공방의 거리,2017-10-28,2017-10-28,"주민운동회, 주민회의, 노래자랑, 나눔장터, 프리마켓 등",신창동 마을축제 추진위원회,광주광역시 광산구 신창동,,,,,광주광역시 광산구 왕버들로 291,,35.1956384,126.840969,2019-01-01,3630000,광주광역시 광산구
제2회 하남동 도농공 한울타리 어울림축제,경암근린공원,2017-10-28,2017-10-28,"기념식, 문화공연, 주민노래자랑, 플리마켓 등",하남동 한울타리 어울림축제 추진위원회,광주광역시 광산구 하남동,,,,,광주광역시 광산구 하남대로54번안길 133,,35.178175,126.7999659,2019-01-01,3630000,광주광역시 광산구
울릉해변가요제,저동항,2020-08-01,2020-08-31,"군민가요제, 불꽃놀이",(사)울릉청년단,울릉군,,054-791-4116,https://www.ulleung.go.kr/tour/page.htm?mnu_uid=1991&,주민과 관광객들의 만남의 장으로 한여름밤의 낭만을 즐길 수 있는 행사,,경상북도 울릉군 울릉읍 도동리 300-8,37.48430421,130.9056438,2020-12-31,5260000,경상북도 울릉군
우산문화제,도동항,2020-09-01,2020-10-31,"개막축하행사전통민속놀이, 체험행사 등",울릉문화원,울릉군,,054-791-0245,https://www.ulleung.go.kr/tour/page.htm?mnu_uid=1988&,울릉도 개척 정신을 기리고 울릉이 문화의 고장임을 널리 소개,,경상북도 울릉군 울릉읍 도동리 169,37.48343755,130.9020734,2020-12-31,5260000,경상북도 울릉군
오징어축제,저동항,2020-06-12,2020-06-14,"오징어 맨손잡기, 요리경연, 뗏목경주등",울릉군 축제위원회,울릉군,"경상북도, 관내 기관 및 사회단체",054-790-6392,https://www.ulleung.go.kr/tour/page.htm?mnu_uid=1986&,"울릉도의 비경을 배경으로 푸른 동해 바다에서 오징어를 잡아보고,오징어 건조과정을 체험하면서 각종 오징어요리를 즐길 수 있는 행사",,경상북도 울릉군 울릉읍 도동리 300-8,37.48430421,130.9056438,2020-12-31,5260000,경상북도 울릉군
회당문화재,도동항,2020-07-01,2020-07-02,"버스킹, 전시 및 체험행사, 독도아리랑 콘서트 진행(메인)",대한불교진각종,대한불교진각종,울릉군,,https://www.ulleung.go.kr/tour/page.htm?mnu_uid=1992&,"버스킹, 전시 및 체험행사, 독도아리랑 콘서트 등 다양한 문화행사로 진행",,경상북도 울릉군 울릉읍 도동리 169,37.48343755,130.9020734,2020-12-31,5260000,경상북도 울릉군
민속그네뛰기,사동 자생식물원,2020-06-25,2020-06-25,그네뛰기,울릉문화원,울릉문화원,울릉군,,https://www.ulleung.go.kr/tour/page.htm?mnu_uid=1989&,전통문화 계승발전과 건전한 사회 기풍을 조성함과 향토문화 창달에 기여,경상북도 울릉군 울릉읍 간령길 83-18,,37.46024044,130.8735494,2020-12-31,5260000,경상북도 울릉군
최남단 모슬포 방어축제,모슬포항 일원,2021-11-15,2021-11-30,드라이스루(비대면)및 온라인행사(방어.부시(포장)판매 등),최남단방어축제위원회,최남단방어축제위원회,,064-794-8032,http://bangeofestival.com/,,제주특별자치도 서귀포시 대정읍 최남단해안로 120,,33.2100651,126.2583797,2021-12-15,6500000,제주특별자치도
아트제주 2021,메종 글래드 제주,2021-12-15,2021-11-28,제주 최대 규모의 국제 아트페어 아트제주를 통해 국내외 갤러리가 선별한 현대미술품을 한 자리에서 만나보자.,사)섬아트제주,제주특별자치도,제주특별자치도개발공사. 메종글래드제주. 월정아트센터,064-738-3366,https://www.artjejukorea.com/,,제주특별자치도 제주시 노연로 80,,33.4856126,126.488913,2021-12-15,6500000,제주특별자치도
한림공원 국화축제,한림공원 산야초원 內 플라워가든,2021-11-06,2021-11-28,올해 창립50주년이 된 제주 대표 관광지 한림공원이 봄부터 사랑과 정성을 다해 정성껏 가꾸어온 국화 수십만송이의 국화 작품이 어우러져 아름다운 국화 정원을 선보인다.,한림공원,한림공원,,064-796-0001,http://www.hallimpark.com/,,제주특별자치도 제주시 한림읍 한림로 300,,33.390213,126.2396912,2021-12-15,6500000,제주특별자치도
제주허브동산 겨울동백축제,제주허브동산,2021-11-25,2022-01-15,허브동산은 겨울 동백 축제를 위해 풍차 전망대. 애기동백과 함께 사진을 남길 수 있는 Camelia Avenue. 기찻길을 따라 동백이 줄지어 서있는 Camelia Station을 조성했다.,제주허브동산,제주허브동산,,064-787-7362,www.herbdongsan.com,,제주특별자치도 서귀포시 표선면 돈오름로 170,,33.3291241,126.8147261,2021-12-15,6500000,제주특별자치도
제주국제관악제,제주아트센터. 세계자동차&피아노박물관,2021-12-03,2021-12-07,제주의 겨울 그리고 금빛나팔소리 제주국제관악제 겨울,제주국제관악제 조직위원회,제주국제관악제 조직위원회,,064-710-3495,http://www.jiwef.org/intro/index.php,,제주특별자치도 제주시 동광로 69,,33.5044361,126.5351724,2021-12-15,6500000,제주특별자치도
울산쇠부리축제,달천철장 일원,2022-05-13,2022-05-15,"체험,전시,학술 등",울산쇠부리축제 추진위원회,울산광역시 북구,,052-293-3500,www.soeburi.org,,울산광역시 북구 달천철장길 58,울산광역시 북구 달천동 1-7,35.63421726,129.3289893,2021-12-20,3720000,울산광역시 북구
추억의 충장축제,"광주 동구 충장로, 금남로, 문화전당, 예술의 거리 일원",2021-11-18,2021-11-21,"충장 퍼레이드, 추억의 테마거리, 추억의 고고장, 대학가요제 리턴즈, 충장달빛캠핑",광주광역시 동구,광주광역시 동구,"문화체육관광부, 광주광역시",062-608-2421,http://www.donggu.kr/index.es?sid=c8,,광주광역시 동구 서남로 1(동구청),광주광역시 동구 서석동 31,35.1461414,126.9230951,2021-12-20,3590000,광주광역시 동구
주안미디어문화축제,옛시민회관 쉼터 등 미추홀구 전역,2023-01-01,2023-12-31,미추홀의 특색있는 문화자원과 미디어 분야의 융합 콘텐츠를 만날 수 있는 축제 프로그램,인천광역시 미추홀구,인천광역시 미추홀구,,032-880-7978,https://www.michuhol.go.kr/culture/main.do,,,인천광역시 미추홀구 주안동 190-4,37.4588336,126.6796135,2022-02-22,3510500,인천광역시 미추홀구
별밤포차,상주은모래비치,2022-04-01,2022-12-31,별밤포차4개소운영 및 공연,상주번영회,경상남도 남해군,경상남도 남해군,055-860-8603,http://tour.namhae.go.kr/main.web,,경상남도 남해군 상주면 상주로 10-3,경상남도 남해군 상주면 상주리 1136-1,34.7222114298,127.9874444630,2022-02-24,5430000,경상남도 남해군
고현 관음포 둑방길 봄꽃축제,고현면 일원,2022-04-01,2022-04-30,"봄꽃 관람, 특산물 판매 및 홍보 부스 운영",고현둑방공원마을공동체,경상남도 남해군,경상남도 남해군,055-860-8603,http://tour.namhae.go.kr/main.web,,,경상남도 남해군 고현면 포상리 986-5,34.8979403331,127.8685968241,2022-02-24,5430000,경상남도 남해군
창선고사리 삼합축제,창선면 일원,2022-05-01,2022-05-30,먹거리 및 지역특산물 판매 운영,창선고사리삼합축제추진위원회,경상남도 남해군,경상남도 남해군,055-860-8603,http://tour.namhae.go.kr/main.web,,,경상남도 남해군 창선면 상죽리 10-18,34.86151038,128.0172216,2022-02-24,5430000,경상남도 남해군
보물섬 남해 커피축제,남해읍 일원,2022-05-01,2022-05-30,"로스팅, 핸드드립 등 체험행사",보물섬바리스타협의회,경상남도 남해군,경상남도 남해군,055-860-8603,http://tour.namhae.go.kr/main.web,,경상남도 남해군 남해읍 화전로 83,경상남도 남해군 남해읍 북변리 157,34.8387158782,127.8938765987,2022-02-24,5430000,경상남도 남해군
여주도자기축제,여주 프리미엄아울렛 EAST광장 일원,2022-04-08,2022-04-17,"도자기 전시 및 판매, 소공연",여주세종문화재단,여주시,,031-881-9693,www.yjcf.or.kr,신륵사 명성황후생가 영릉 황학산수목원 등,경기도 여주시 명품로 360,경기도 여주시 상거동 460,,,2022-02-17,5700000,경기도 여주시
달맞이축제,울릉예술문화체험장(구.장흥초등학교),2020-02-08,2020-02-08,달집태우기,정월대보름 장흥달맞이 놀이마당추진위원회,정월대보름 장흥달맞이 놀이마당추진위원회,,,https://www.ulleung.go.kr/tour/page.htm?mnu_uid=1994&,우리 전통문화를 선양하고 사라져가는 세시풍습을 재현하여 민속축제로 승화,경상북도 울릉군 울릉읍 옥천길 8,,37.47367561,130.8875026,2020-12-31,5260000,경상북도 울릉군
태하성하신당제,서면 태하 성하신당,2020-03-24,2020-03-24,기원행사,울릉문화원,울릉문화원,,,https://www.ulleung.go.kr/tour/page.htm?mnu_uid=1990&,"행토발전의 결의를 새롭게 다지고 지역경제 활성화를 기원하고 풍어, 풍년을 기원하는 제전",경상북도 울릉군 서면 태하길 154,,37.51222566,130.800884,2020-12-31,5260000,경상북도 울릉군
농악대축제,시민운동장,2016-10-22,2016-10-23,농악행사,농악보존회,광명시,광명시의회,02-899-1664,,구름산예술제(시민회관),경기도 광명시 오리로703 광명시민운동장,경기도 광명시 하안1동 577,37.4620073,126.8714551,2020-12-18,3900000,경기도 광명시
농악대축제,시민운동장,2015-10-17,2015-10-18,농악행사,농악보존회,광명시,광명시의회,02-899-1664,,구름산예술제(시민회관),경기도 광명시 오리로703 광명시민운동장,경기도 광명시 하안1동 577,37.4620073,126.8714551,2020-12-18,3900000,경기도 광명시
구름산예술제,시민회관,2015-10-17,2015-10-18,예술전시및행사,예총,광명시,광명시의회,02-2680-6871,,농악대축제(시민운동장),경기도 광명시 시청로20 광명시민회관,경기도 광명시 철산동222-1 광명시민회관,37.4776304,126.8646268,2020-12-18,3900000,경기도 광명시
제14회 광명시평생학습축제,광명시 전역,2015-09-07,2015-09-20,학술 컨퍼런스 외,광명시평생학습네트워크협의체,광명시,없음,02-2680-6200,http://lll.gm.go.kr/site/festival,광명8경,"경기도 광명시 오리로 854번길 10(철산동, 광명시평생학습원)",경기도 광명시 철산동 419,37.4743772,126.8684796,2020-12-18,3900000,경기도 광명시
제2회 밤일음식문화 거리 축제,밤일음식문화거리 내,2016-06-10,2016-06-10,"음식점할인행사, 무료시식, 노래자랑, 초대공연 등",밤일음식문화거리 상가번영회,광명시,광명시의회,02-2680-5484,,경기도 지정 밤일음식문화특화거리,경기도 광명시 밤일안로 일대,경기도 광명시 밤일안로 일대,37.453842,126.860748,2020-12-18,3900000,경기도 광명시
구름산예술제,시민회관,2016-10-22,2016-10-23,예술전시및행사,예총,광명시,광명시의회,02-2680-6871,,농악대축제(시민운동장),경기도 광명시 시청로20 광명시민회관,경기도 광명시 철산동222-1 광명시민회관,37.4776304,126.8646269,2020-12-18,3900000,경기도 광명시
제16회 광명시평생학습축제,광명시 전역,2017-09-09,2017-09-23,학술 컨퍼런스 외,광명시평생학습네트워크협의체,광명시,없음,02-2680-6200,http://lll.gm.go.kr/site/festival,광명8경,경기도 광명시 오리로854번길 10,경기도 광명시 철산3동419,37.474331,126.868457,2020-12-18,3900000,경기도 광명시
제26회 오리문화제,광명시민체육관,2017-05-18,2017-05-20,"오리이원익 영우참배/헌화식, 전시,체험마당, 먹거리장터, 학술행사 등",광명문화원,광명시,광명시의회,02-2680-6223,www.gmcc.or.kr/,,경기도 광명시 밤일안로,경기도 광명시 철망산로 42,37.463301,126.870701,2020-12-18,3900000,경기도 광명시
구름산예술제,시민회관,2017-09-23,2017-09-24,예술전시및행사,예총,광명시,광명시의회,02-2680-6871,,농악대축제(시민운동장),경기도 광명시 시청로 20,경기도 광명시 철산2동222-1 광명시민회관,37.4790975,126.8648458,2020-12-18,3900000,경기도 광명시
농악대축제,시민운동장,2017-10-20,2017-10-22,농악행사,농악보존회,광명시,광명시의회,02-899-1664,,구름산예술제(시민회관),경기도 광명시 오리로 703,경기도 광명시 하안1동577,37.46251877,126.8711648,2020-12-18,3900000,경기도 광명시
"소하도서관 책축제 팔짱, 책을 품다",소하도서관 광장 및 한내천 일대,2016-04-15,2016-04-15,"프리마켓, 책축제, 전시, 공연, 체험",소하도서관 청소년수련관,광명시,없음,02-2680-0926,http://www.gmlib.or.kr/soha,팔짱(청소년수련관),경기도 광명시 소하일로7,경기도 광명시 소하동 1331,37.44545992,126.8879915,2020-12-18,3900000,경기도 광명시
농악대축제,시민운동장,2018-10-27,2018-10-28,농악행사,농악보존회,광명시,광명시의회,02-899-1664,,,경기도 광명시 시청로 20,경기도 광명시 철산3동222-1,37.4790975,126.8648458,2020-12-18,3900000,경기도 광명시
구름산예술제,시민체육관,2018-08-31,2018-09-02,예술 전시 및 부대행사,한국예총광명지회,광명시,광명시의회,02-2680-6871,,,경기도 광명시 오리로 703,경기도 광명시 하안1동577,37.46251877,126.8711648,2020-12-18,3900000,경기도 광명시
제7회 목감천 친환경 축제,우리공원,2019-05-25,2019-05-25,주민자치프로그램 공연 및 목감천 가요제 등,광명6동주민자치위원회 및 유관단체,목감천친환경축제위원회,없음,02-2680-6672,,,경기도 광명시 광명로791번길6,,37.4710361,126.8486332,2020-12-18,3900000,경기도 광명시
평생학습도시 선언 20주년 컨퍼런스,광명시평생학습원,2019-11-01,2019-11-01,평생학습도시 선언 20주년 컨퍼런스 및 전시,평생학습원,광명시,광명시의회,02-2680-2549,,,"경기도 광명시 오리로 854번길 10(철산동, 광명시평생학습원)","경기도 광명시 오리로 854번길 10(철산동, 광명시평생학습원)",37.4743772,126.8684796,2020-12-18,3900000,경기도 광명시
2021 서귀포문화재 야행,서귀포문화재 일원을 찬찬히 걸으며 문화를 향유하는 서귀포문화재 야행,2021-10-08,2021-10-11,신들의 정원 서귀포,(사)제주마을문화진흥원,문화재청+제주특별자치도,,070-8990-9999,,,제주특별자치도 서귀포시 칠십리로 145,,33.2443818,126.5689264,2021-12-15,6500000,제주특별자치도
문화 향유의 공간 탐나는 원도심,탐라문화광장 등 원도심 일대,2021-10-15,2021-11-27,제주관광공사는 10월 15일부터 오는 11월 27일까지 매 주말마다 탐라문화광장 등 원도심 일대에서 탐나는 버스킹(버스킹공연). 탐나는 시네마(영화 상영). 탐나는 이벤트(지역상권 활성화 이벤트). 스트링 전구 설치로 구성된 「문화 향유의 공간. 탐나는 원도심」이라는 문화행사를 추진한다.,제주관광공사,제주관광공사,,064-740-6000,https://www.visitjeju.net/,,,제주특별자치도 제주시 일도일동 1498,33.5105121,126.526786,2021-12-15,6500000,제주특별자치도
제주허브동산 핑크뮬리축제,제주허브동산,2021-09-20,2021-11-30,제주허브동산 핑크뮬리 축제는 올해로 네 번째를 맞이하며 제주도에서 대표적인 핑크뮬리 축제로 자리매김했다.,제주허브동산,제주허브동산,,064-787-7362,http://www.herbdongsan.com/,,제주특별자치도 서귀포시 표선면 돈오름로 170,,33.3291241,126.8147261,2021-12-15,6500000,제주특별자치도
마노르블랑 핑크뮬리축제,마노르블랑,2021-09-10,2021-11-30,대한민국 핑크뮬리 성지 마노르블랑에서 핑크뮬리축제의 향연이 시작된다.,마노르블랑,마노르블랑,,064-794-0999,https://manorblanc.modoo.at/,,제주특별자치도 서귀포시 일주서로2100번길 46,,33.2548352,126.2950041,2021-12-15,6500000,제주특별자치도
산지에 색을 입히다. 컬러풀산지,탐라문화광장,2021-09-03,2021-11-27,코로나19 장기화로 침체된 탐라문화광장 일대를 환하게 밝혀 활력을 불어넣기 위해 비대면 경관조성 사업인 「산지에 색을 입히다. 컬러풀산지(컬러풀산지)」를 개최한다.,제주관광공사,제주관광공사,,064-740-6000,https://www.visitjeju.net/,,,제주특별자치도 제주시 일도일동 1498,33.5105121,126.526786,2021-12-15,6500000,제주특별자치도
휴애리 동백 축제,휴애리,2021-11-12,2021-12-31,2021 휴애리 동백축제는 서귀포시 남원읍 신례리에 위치한 휴애리의 대표 겨울축제이다.,휴애리,휴애리,,064-732-2114,http://www.hueree.com/index.php,,제주특별자치도 서귀포시 남원읍 신례동로 256,,33.30853475,126.6343808,2021-12-15,6500000,제주특별자치도
제15회 영양산나물축제,영양군청 일원,2019-05-02,2019-05-05,"판매, 체험, 공연, 부대행사",(재)영양축제관광재단,영양군,,054-680-6411,yftf.kr,축제 프로그램 등,경상북도 영양군 영양읍 군청길 37,경상북도 영양군 영양읍 서부리 379-1,36.6673577350,129.1126843895,2020-12-24,5170000,경상북도 영양군
2020 영양고추 H.O.T Festival,서울광장,2019-08-27,2019-08-29,"판매, 체험, 공연, 부대행사",영양군,영양군,"농림축산식품부, 농촌진흥청, 국립농산물품질관리원, 경상북도, KBS, 한국농수산식품유통공사,한국농어촌공사,한국식품연구원,(사)대한민국김치협회,영양고추유통공사,NH농협은행 영양군지부, 영양농협,남영양농협",054-680-6571,영양군청홈페이지 주소,"고추판매 축제,일정 등",서울특별시 중구 세종대로 110,서울특별시 중구 태평로1가 31,37.56631769,126.9778284,2020-12-24,5170000,경상북도 영양군
석촌호수벚꽃축제,석촌호수 일대,2021-04-02,2021-04-11,개막식 벚꽃음악회 벚꽃버스킹 벚꽃조명길 포토존 벚꽃 온라인 체험 등,서울특별시 송파구,서울특별시 송파구,,02-2147-2800,https://www.songpa.go.kr/culture/detailInfo.do?key=3794&resrceCd=CT0155-1000031&,,서울특별시 송파구 석촌호수로 197,서울특별시 송파구 잠실동 47,37.5066934,127.0989034,2021-02-17,3230000,서울특별시 송파구
한성백제문화제,올림픽공원 일대,2021-09-29,2021-10-03,역사문화거리행렬 한성백제체험마을 한성백제갈라퍼레이드 개폐막식 등 축하공연 한성백제 성곽돌기 각종 체험행사 등,한성백제문화제추진위원회,서울특별시 송파구,,02-2147-2800,https://www.songpa.go.kr/hanseong/index.do?,,서울특별시 송파구 올림픽로 424,서울특별시 송파구 방이동 88,37.52034114,127.1155184,2021-02-17,3230000,서울특별시 송파구
향촌동수제화골목 2018년「빨간구두 이야기」,향촌동수제화골목 일원,2018-10-13,2018-10-14,"무대행사, 체험행사, 부대행사 등",대구광역시 수제화협회,대구광역시 수제화협회,대구광역시 중구,053-661-2046,,,대구광역시 중구 서성로14길 78,대구광역시 중구 대안동 15-2,35.8728473,128.591844,2021-08-20,3410000,대구광역시 중구
김광석추모콘서트,김광석길야외콘서트홀,2019-01-06,2019-01-06,초청가수콘서트,대봉문화마을협의회,대봉문화마을협의회,대구광역시 중구,053-661-2173,,,대구광역시 중구 동덕로8길34-20,대구광역시 중구 대봉동 6-5,,,2021-08-20,3410000,대구광역시 중구
2019 대구약령시한방문화축제,약령시(약전골목) 일원,2019-05-02,2019-05-06,"경연, 참여, 체험, 전시, 공연, 먹거리 등",(사)약령시보존위원회,대구광역시+대구광역시 중구,문화체육관광부+한국관광공사+대구시 한약협회+대구시 한의사회+한약도매협회 대구시지회+(주)대구시한약재도매시장,053-661-2178,,,대구광역시 중구 남성로 61 (동성로3가),대구광역시 중구 동성로3가 35-13,35.86728562,128.5933466,2021-08-20,3410000,대구광역시 중구
대구 문화재 야행,"약령시, 청라언덕",2019-08-23,2019-08-24,"문화(재)시설 오픈하우스, 전시, 공연, 체험, 강좌, 투어 등",대구광역시 중구,대구광역시 중구,문화재청+대구광역시,053-661-2181,,,대구광역시 중구 달구벌대로 415길 49,대구광역시 중구 남성로 51-1,35.86851636,128.5899085,2021-08-20,3410000,대구광역시 중구
향촌동수제화골목 2019년「빨간구두 이야기」,향촌동수제화골목 일원,2019-10-19,2019-10-20,"무대행사, 체험행사, 부대행사 등",대구광역시 수제화협회,대구광역시 수제화협회,대구광역시 중구,053-661-2046,,,대구광역시 중구 서성로14길 78,대구광역시 중구 대안동 14-1,35.8728473,128.591844,2021-08-20,3410000,대구광역시 중구
제8회 김광석노래부르기,김광석길야외콘서트홀,2020-10-31,2020-10-31,"전국 규모 김광석 노래경연 대회 개최, 유튜브 라이브 중계",대구문화방송㈜,대구광역시 중구,대구광역시+대구광역시 중구,053-661-2174,,,대구광역시 중구 동덕로8길34-20,대구광역시 중구 대봉동 6-5,,,2021-08-20,3410000,대구광역시 중구
제31회 동성로축제,동성로 야외무대,2020-10-23,2020-10-25,"비대면 온라인 축제 개최,  동성로가요제_댄스대회_먹방대회_패션쇼외 SNS이벤트(부르GO, 춤추GO, 먹GO,입GO 4가지 대회로 구성), 축제기간 동성로 일원 4곳  LED전광판 축제영상 송출",사)달성문화선양회,사)달성문화선양회,대구광역시+대구광역시 중구,053-661-2174,,,대구광역시 중구 동성로28,대구광역시 중구 동성로2가 165-1,,,2021-08-20,3410000,대구광역시 중구
개항제례,창원시립 마산음악관 야외,2018-05-01,2018-05-01,"개항제례, 전시행사, 경연행사, 전시/체험행사",마산예총,창원시,,,,,경상남도 창원시 마산합포구 수산2길 35,,35.19757501,128.5719112,2021-10-19,5670000,경상남도 창원시
제28회 봉산미술제,봉산문화거리,2020-10-09,2020-10-11,"도슨트아트투어(봉산문화거리 화랑 투어), 온라인 VR전시, 온라인 미술작품경매, 코로나19 주제의 어린이 작품 온라인 전시 등",봉산문화협회,봉산문화협회,대구광역시+대구광역시 중구,053-661-2174,,,대구광역시 중구 봉산문화길 77,대구광역시 중구 봉산동 125,35.86339725,128.5965647,2021-08-20,3410000,대구광역시 중구
2020 대구 문화재 야행,"약령시, 청라언덕",2020-09-25,2020-09-26,"청사초롱 야경 투어, 전시행사 및 포토존 운영, 공연 무관중 사전녹화 영상 등 송출",대구광역시 중구,대구광역시 중구,"문화재청, 대구광역시",053-661-2195,,,대구광역시 중구 달구벌대로 415길 49,대구광역시 중구 남성로 51-1,35.86851636,128.5899085,2021-08-20,3410000,대구광역시 중구
김광석길페스티벌,김광석길 일원(김광석길야외콘서트홀),2020-11-07,2020-11-08,"대구레코드 페어, 김광석 노래 편곡 오케스트라 공연, 버스킹, 유튜브 라이브중계",방천문화예술협회,방천문화예술협회,대구광역시+대구광역시 중구,053-661-2174,,,대구광역시 중구 동덕로8길 34-20,대구광역시 중구 대봉동 6-5,,,2021-08-20,3410000,대구광역시 중구
향촌동수제화골목 2020년「빨간구두 이야기」,향촌동수제화골목 일원,2020-10-31,2020-11-01,"비대면 온라인 축제 개최, 수제화패션쇼, 행운권 추첨 등",대구광역시 수제화협회,대구광역시 수제화협회,대구광역시 중구,053-661-2046,,,대구광역시 중구 서성로14길 78,대구광역시 중구 향촌동 42-2,35.8728473,128.591844,2021-08-20,3410000,대구광역시 중구
대구패션주얼리위크,대구 주얼리 특구,2020-10-30,2020-10-31,"비대면 온라인 축제 개최,  주얼리패션쇼, 주얼리경매, 주얼리모델선발대회, 주얼리체험 등",대구패션주얼리위크 조직위원회,대구패션주얼리특구상인회,대구광역시 중구,053-661-2046,,,대구광역시 중구 경상감영길 176,대구광역시 중구 동문동 38-6,35.87177744,128.5966863,2021-08-20,3410000,대구광역시 중구
마노르블랑 수국축제,마노르블랑,2021-05-01,2021-09-30,수국축제의 향연. 전세계 30여종 7천여본 수국들을 만나다,마노르블랑,마노르블랑,,064-794-0999,https://manorblanc.modoo.at/,,제주특별자치도 서귀포시 안덕면 일주서로2100번길 46,,33.25482364,126.2949866,2021-12-15,6500000,제주특별자치도
해녀마켓 - 해녀와 함께하는 온/오프라인 프리마켓,법환동 해녀물질체험장,2021-05-08,2021-07-24,5월부터 매주 토요일. 윤슬이 찬란하게 빛나는 법환 바다 앞 물질체험장에서 토요 문화장터 해녀마켓이 열린다.,㈜헤쎄드커뮤니케이션즈,㈜헤쎄드커뮤니케이션즈,법환동 어촌계,064-900-4053,,,제주특별자치도 서귀포시 법환동 169-5,,33.2333792,126.5128503,2021-12-15,6500000,제주특별자치도
2021 제주카페스타,제주국제컨벤션센터,2021-06-03,2021-06-06,제주 유일의 카페박람회 - 제주카페스타는 올해로 5회차를 맞이한 카페박람회로 제주 카페 산업과 문화. 최근 트렌드까지 한 눈에 볼 수 있다.,(주)숨비페어스,(주)숨비페어스,,064-711-1002,https://www.jejucafeshow.com/,,제주특별자치도 서귀포시 중문관광로 224,,33.24128964,126.4244429,2021-12-15,6500000,제주특별자치도
2021 제주해녀축제,해녀박물관,2021-09-17,2021-09-19,해녀 디지털 화보전시.해녀 레시피.숨비소리길 VR.해녀체험 브이로그,해녀박물관,해녀박물관,,064-782-9898,http://www.jeju.go.kr/haenyeo/index.htm,18일 해녀의 날 기념식 제외 모두 온라인 진행 예정,제주특별자치도 제주시 구좌읍 해녀박물관길 26,,33.52360988,126.8634256,2021-12-15,6500000,제주특별자치도
탐라문화제,제주특별자치도 일원,2021-10-06,2021-10-10,탐라인의 삶.제주문화 중흥,제60회 탐라문화제추진위원회,제주특별자치도+사단법인 한국예총제주특별자치도연합회,제주특별자치도교육청.한국문화예술위원회 등,064-753-3287,http://www.tamnafestival.kr/,온오프라인병행,,제주특별자치도 제주시 일도1동 1146-22,33.5132895,126.5280239,2021-12-15,6500000,제주특별자치도
제15회 차성문화제,기장중학교 일원,2019-10-12,2019-10-13,"전통문화체험, 차성가 연극 및 공연, 차성가 콘서트 등",차성문화제추진위원회,차성문화제추진위원회,부산광역시 기장군청,051-709-4062,http://www.gijang.go.kr/tour/index.gijang,,부산광역시 기장군 기장읍 읍내로 120,부산광역시 기장군 기장읍 대라리 40,35.2448828028,129.2183134038,2019-09-23,3400000,부산광역시 기장군
은행나무길 축제,곡교천 은행나무길,2019-10-24,2019-10-27,"공연, 프리마켓, 거리공연",(재)아산문화재단,충청남도 아산시,,041-540-2550,http://culture.asan.go.kr/_ginko/,,,충청남도 아산시 염치읍 백암리 502-3,,,2021-08-19,4520000,충청남도 아산시
안산사이언스밸리(ASV) 과학축제,한양대 ERICA,2018-10-20,2018-10-21,"과학기술체험 부스 운영, 드론페스티벌 등","경기TP, 안산청소년수련관, 한양대 ERICA",안산시,,031-481-3517,,,경기도 안산시 상록구 한양대학로 55,경기도 안산시 상록구 사동 1271,37.298004,126.834393,2021-08-31,3930000,경기도 안산시
제11주년 세계인의 날 기념행사,안산화랑유원지,2018-11-04,2018-11-04,"기념식, 문화 및 각종 부대행사",안산시,안산시,한국가스공사,031-481-3298,,원곡동 다문화거리,경기도 안산시 단원구 동산로 268,경기도 안산시 단원구 초지동 667,37.325674,126.813771,2021-08-31,3930000,경기도 안산시
강진청자축제,청자촌 일원,2021-10-01,2021-10-07,가을축제에 따른 다이내믹하고 흥이 넘치는 청자촌 분위기 조성과 향우와 구민이 함께 어우러지는 문화체육관광부 선정 우수축제,강진군향토축제추진위원회,강진군,"전라남도, 한국관광공사, 농협중앙회, 광주은행",061-430-3352,http://www.gangjin.go.kr/culture/,,전라남도 강진군 대구면 청자촌길 33,전라남도 강진군 대구면 사당리 127,34.50866041,126.8008375,2021-11-22,4920000,전라남도 강진군
강진만 춤추는 갈대축제,강진만 생태공원 일원,2021-10-29,2021-11-07,가을의 정취와 추억을 체험하는 남도답사 1번지 이미지 창출과 갈대·음악·자연을 대표하는 명품 축제,강진군 향토축제추진위원회,강진군,,061-430-3354,http://www.gangjin.go.kr/culture/,,전라남도 강진군 강진읍 남당로 97-23,전라남도 강진군 강진읍 목리 128-1,34.6259705,126.7724317,2021-11-22,4920000,전라남도 강진군
축령산 편백산소축제,축령산 조림성공지,2019-10-05,2019-10-05,"공연,체험,판매행사 등",장성군축제위원회,장성군,,061-390-7242,https://www.jangseong.go.kr/home/tour_new/festival/festival_04/festival_04_03,축령산 편백숲,,전라남도 장성군 서삼면 모암리 569-5,35.3738904268,126.7564871215,2021-12-23,4980000,전라남도 장성군
빈센트의 봄,"장성역 광장, 장성공원 일원",2019-04-13,2019-04-14,"공연,체험,판매행사 등",장성읍청년회,장성군,"한국철도공사, 장성미술협회 등",061-390-7405,https://www.jangseong.go.kr/home/tour_new/festival,"옐로우시티,빈센트반고흐",,전라남도 장성군 장성읍 영천리 1273-5,35.29995636,126.780147,2021-12-23,4980000,전라남도 장성군
2020 부평풍물대축제,신트리공원 등,2020-10-16,2020-10-18,"다큐멘터리 제작, 지역 문화예술인 참여 소규모 공연 등",부평구축제위원회+ 부평구문화재단+ 부평문화원,인천광역시 부평구청,문화체육관광부+인천광역시,032-509-7516,https://portal.icbp.go.kr/bpf/,,인천광역시 부평구 신트리로 21,인천광역시 부평구 부평동 880,37.506554,126.7236393,2021-12-24,3540000,인천광역시 부평구
2021 부평풍물대축제,부평아트센터,2021-10-15,2021-10-17,"전통, 창작, 가족 공연, 개막 및 폐막 공연, 작품전시 등",부평구축제위원회+ 부평구문화재단+ 부평문화원,인천광역시 부평구청,인천광역시+인천광역시의회+부평구의회,032-509-7516,https://portal.icbp.go.kr/bpf/,홈페이지 참조,인천광역시 부평구 아트센터로 166,인천광역시 부평구 십정동 186,37.4822383,126.7049334,2021-12-24,3540000,인천광역시 부평구
2019 오륙도 평화축제,평화공원(대연동),2019-10-19,2019-10-20,"무대공연, 부대행사, 오륙도 평화가족가요제",부산광역시 남구,부산광역시 남구,,,,,부산광역시 남구 대연동 707번지,,35.12625873,129.1003968,2021-12-23,3310000,부산광역시 남구
봉화은어축제,봉화읍 내성천 일원,2021-07-31,2021-08-08,"은어반두잡이, 맨손잡이 체험 등",(재)봉화축제관광재단,경상북도 봉화군,,054-674-3053,https://bhftf.co.kr:8091/,"분천산타마을,봉화송이축제",,경북 봉화군 봉화읍 내성로 5길 13 군민행복센터 4층,36.8888791,128.7378251,2021-12-23,5240000,경상북도 봉화군
9.81파크; X리그 2021 정규시즌,9.81파크,2021-03-01,2021-11-07,천혜의 제주 풍경을 감상하며 중력가속도만으로 스피드를 즐기는 다운힐(down-hill)레이싱,9.81파크,9.81파크,,1899-9810,https://www.981park.com/,,제주특별자치도 제주시 애월읍 천덕로 880-24,,33.39003694,126.366509,2021-12-15,6500000,제주특별자치도
휴애리 수국 축제,휴애리,2021-04-01,2021-08-31,오색빛깔 아름다운 수국축제,휴애리,휴애리,,064-732-2114,http://www.hueree.com/index.php,,제주특별자치도 서귀포시 남원읍 신례동로 256,,33.30853475,126.6343808,2021-12-15,6500000,제주특별자치도
금천하모니축제 2021,금천구청 광장 일대,2021-11-03,2021-11-07,워크스루형 대형 기획 전시,금천문화재단,서울특별시 금천구청+금천문화재단,서울특별시,02-2627-1442,https://gcfac.or.kr/content?gcfac_menu_cd=U0107,,서울특별시 금천구 시흥대로73길 70,서울특별시 금천구 시흥동 1020,37.45706565,126.8960369,2022-02-26,3170000,서울특별시 금천구
제천국제음악영화제,"시내일원, 의림지",2022-08-12,2022-08-17,음악영화제,제천국제음악영화제집행위원회,제천국제음악영화제집행위원회,제천시,043-646-2242,http://www.jimff.org,,충청북도 제천시 의림대로12길 14-1,충청북도 제천시 청전동 110,37.1493417,128.2160865,2022-02-25,4400000,충청북도 제천시
제천의병제,자양영당 등,2022-10-15,2022-10-16,의병제,제천문화원,제천문화원,제천시,043-642-3646,http://www.jecheoncc.or.kr,,충청북도 제천시 의림대로 125,충청북도 제천시 중앙로2가 26-1,37.13923321,128.210774,2022-02-25,4400000,충청북도 제천시
겨울왕국 제천페스티벌,시내 및 의림지 일원,2022-12-24,2023-01-23,겨울벚꽃 및 얼음 축제,(재)제천문화재단,(재)제천문화재단,제천시,043-641-4870,http://www.jccf.or.kr,,충청북도 제천시 의림대로 242,충청북도 제천시 청전동 110,37.1493417,128.2160865,2022-02-25,4400000,충청북도 제천시
대전효문화뿌리축제,뿌리공원 및 원도심 일원,2021-09-01,2021-10-10,"생생과 화합의 만복장터, 온라인 공연, 체험, 이벤트 등",대전효문화뿌리축제추진위원회,대전광역시 중구,,042-606-6292,https://www.djjunggu.go.kr/hyo-ppuri/index.do,뿌리공원,대전광역시 중구 뿌리공원로 47,대전광역시 중구 안영동 71-2,36.28533721,127.3844931,2022-02-25,3650000,대전광역시 중구
영천보현산별빛축제,보현산천문과학관 일원,2021-10-08,2021-10-10,"천문, 우주, 과학 관련 온오프라인 콘텐츠 운영, 천문학 강의, 스타파티, 각종 참여 프로그램 등",영천보현산별빛축제위원회,영천보현산별빛축제위원회,경상북도 영천시,054-330-6702,https://www.yc.go.kr/toursub/star/,보현산천문대,경상북도 영천시 화북면 별빛로 681-32,경상북도 영천시 화북면 정각리 689,36.1402561,128.9964736,2022-02-25,5100000,경상북도 영천시
제2회 북성로 축제,북성로 공구골목 일원,2018-10-20,2018-10-21,"부스프로그램, 북성로 공업소 투어, 오픈 스튜디오(작가 공방 오픈), 거리전시 및 공연",훌라,대구광역시 중구,대구광역시 중구,053-661-2173,,,대구광역시 중구 북성로104,대구광역시 중구 북성로1가 96-2,35.87433558,128.5936894,2021-08-20,3410000,대구광역시 중구
제24회 단양온달문화축제,영춘면 온달관광지 및 단양읍 일원,2021-10-22,2021-10-24,제24회 단양온달문화축제,온달문화축제추진위원회,단양문화원,단양군청,043-420-2552,https://www.danyang.go.kr/ondal,제24회 단양온달문화축제,충청북도 단양군 영춘면 온달로 23,충청북도 단양군 영춘면 하리 147,37.06295564,128.4929221,2021-11-16,4480000,충청북도 단양군
정서진 해넘이 축제,인천 서구 정서진,2020-12-31,2020-12-31,"일몰이벤트, 축하공연",인천광역시 서구문화원,인천광역시 서구,,032-560-5933,http://www.seo.incheon.kr/,,인천광역시 서구 정서진1로 41,인천광역시 서구 오류동 1563,37.5584360318,126.6074643744,2021-11-23,3560000,인천광역시 서구
은행나무 아래로 축제,향동 일원,2021-11-01,2021-11-30,"○ 노래자랑, 프리마켓, 투어프로그램, 어린이 인형극 등",전라남도 순천시청,전라남도 순천시청,,061-749-8310,,,전라남도 순천시 임청대길 1,전라남도 순천시 옥천동 81-2,34.95263006,127.4791001,2022-02-15,4820000,전라남도 순천시
2021 겨울정원 축제,순천만국가정원 일원,2021-12-17,2021-02-06,"○ 겨울정원 테마 연출 ○ 기획공연, 체험프로그램 운영",전라남도 순천시청,전라남도 순천시청,,061-749-2722,,,전라남도 순천시 국가정원1호길 47,전라남도 순천시 오천동 600,34.92888669,127.4999574,2022-02-15,4820000,전라남도 순천시
천을산 해맞이,천을산 정상,2023-01-01,2023-01-01,"새해메세지, 대북타고, 해오름 함성 등",(재)수성문화재단,대구광역시 수성구,대구광역시 수성구,053-666-2163,http://suseong.kr,"천을산 해맞이 동산, 고산초교",,대구광역시 수성구 가천동 산11-3,35.85169239,128.6950183,2022-02-15,3460000,대구광역시 수성구
상화문학제,수성못 상화동산,2022-05-13,2022-05-15,"백일장 공모, 시낭송대회, 문학강연, 문학공연, 상화문학답사",수성문화원,수성문화원,대구광역시 수성구,053-768-0002,http://www.suseong.or.kr,,대구광역시 수성구 들안로16길 78,대구광역시 수성구 두산동 30,35.839227,128.618141,2022-02-15,3460000,대구광역시 수성구
2021 군산시간여행축제,구시청광장 및 시간여행마을 일원,2021-09-01,2021-10-31,근대문화축제,군산시간여행축제추진위원회,군산시,전라북도,063-454-3302,http://festival.gunsan.go.kr/,"주변관광지 : 군산근대역사박물관, 초원사진관, 동국사 등",전라북도 군산시 중앙로 178,전라북도 군산시 중앙로1가 11-1,35.98772627,126.711725,2022-02-15,4670000,전라북도 군산시
강릉단오제,강릉시 남대천 단오장 및 지정행사장,2022-05-30,2022-06-06,"문화재행사, 단오TV, 전시, 시민참여행사, 단오유스페스티벌, 온라인 챌린지 행사 등",(사)강릉단오제위원회(사)강릉단오제보존회 외,"(사)강릉단오제위원회,(사)강릉단오제보존회","강원도, 문화체육관광부",033-641-1593,http://www.danojefestival.or.kr,"축제개요,역사,사진자료 등",강원도 강릉시 단오장길 1 (노암동),강원도 강릉시 노암동 722-2,37.74820212,128.8950714,2022-02-10,4200000,강원도 강릉시
제23회 정동진독립영화제,정동초등학교 운동장,2021-09-23,2021-09-26,야외 독립영화제(슬로건: 별이 지는 하늘 영화가 뜨는 바다),제23회 정동진독립영화제 집행위원회,"강릉씨네마떼끄,한국영상자료원","강원도, 강릉시, 강원문화재단, 강릉국제영화제",033-645-7415,http://jiff.kr,"영화제 소개, 프로그램, 부대행사, 영화제 가이드, 커뮤니티, 역대 영화제 등",강원도 강릉시 강동면 헌화로 1055,강원도 강릉시 강동면 정동진리 184,37.68735318,129.0336174,2022-02-10,4200000,강원도 강릉시
강릉국제영화제,"강릉대도호부관아, CGV강릉, 독립예술국장 신영 등 강릉시 일원",2021-10-22,2021-10-31,"다채로운 상영작과 프로그램, 시민 참여형 이벤트 등(영화와 문학, 마스터즈 & 뉴커머즈, 프리미어 기프, 클래식 기프, 패밀리 기프)",(사)강릉국제영화제,강릉시,,033-641-8079,http://www.giff.kr/ko/,"GIFF, 출품안내, 커뮤니티, 역대영화제 등",강원도 강릉시 임영로131번길 6 (용강동),강원도 강릉시 용강동 58-1,37.75294455,128.8919029,2022-02-10,4200000,강원도 강릉시
강릉문화재야행,강릉대도호부관아(사적388호),2021-11-11,2021-11-13,역사문화시설 개방 및 전시.체험.공연 프로그램 운영(8가지 밤의 테마와 32개 프로그램),강릉문화원,강릉시,"문화재청, 강원도, 코레일강원본부",033-823-3212,http://gncn.or.kr,"행사개요, 취지문, 축시, 야행스토리 등",강원도 강릉시 임영로131번길 6 (용강동),강원도 강릉시 용강동 58-1,37.75294455,128.8919029,2022-02-10,4200000,강원도 강릉시
강릉커피축제,"강릉대도호부 관아지, 강릉아레나, 안목해변",2021-11-25,2021-11-28,"커피경연대회(바리스타, 핸드드립, 커핑, 마카롱) , 커피체험(로스팅, 추출, 커핑, 공예품 등), 전시, 공연 등",강릉문화재단,강릉시,"문화체육관광부, 강원도",033-647-6802,http://www.coffeefestival.net,"프로그램, 행사장안내 등",강원도 강릉시 임영로131번길 6 (용강동),강원도 강릉시 용강동 58-1,37.75294455,128.8919029,2022-02-10,4200000,강원도 강릉시
2021 경기인디뮤직페스티벌,백마도 일원,2021-05-28,2021-05-30,인디뮤지션 공연 및 부대행사,경기콘텐츠진흥원,경기도,,032-623-8032,,,,경기도 고촌읍 신곡리 1051,37.609734,126.785629,2022-02-14,4090000,경기도 김포시
2021 김포 아라마린페스티벌,아라마리나 일원,2021-09-04,2021-09-05,물환경콘서트 및 부대행사,㈜워터웨이플러스,김포시,경기도,031-999-7831,aramarinefestival.com,,경기도 김포시 고촌읍 아라육로270번길 73,경기도 김포시 고촌읍 전호리 774,37.599296,126.7891571,2022-02-14,4090000,경기도 김포시
2021 김포 도심축제,라베니체 수변상가 일원,2021-10-18,2021-10-31,"점등식, 경관조명 전시",김포문화재단,김포시,,031-980-2488,,,경기도 김포시 김포한강2로24번길 29,경기도 김포시 장기동 2001-1,37.643506,126.676558,2022-02-14,4090000,경기도 김포시
제43회 남산은월문화제(산신제),남산 은월봉,2022-04-03,2022-04-03,공연,신정1동 주민자치위원회,울산광역시 남구청,,052-226-5413,,공연,울산광역시 남구 돋질로 233,,35.54373999,129.3295216,2022-01-31,3700000,울산광역시 남구
2021년 청양고추.구기자 온라인 축제,"온라인, 대전시청양먹거리직매장",2021-09-01,2021-09-10,"고추, 농특산물 판매 고추구기자전시관 운영 등",청양고추구기자축제추진위원회,청양고추구기자축제추진위원회,충청남도 청양군,041-940-2193,www.칠갑마루.com,"청양먹거리직매장, 칠갑마루, 청양고추",대전광역시 유성구 학하북로 83-6,대전광역시 유성구 학하동 714-3,36.446571,126.804563,2022-02-24,4590000,충청남도 청양군
제22회 칠갑산장승문화축제,칠갑산장승공원,2021-11-06,2021-11-06,"장승대제, 전통 장승깎기",청양문화원,청양문화원,충청남도 청양군,041-940-2193,,"칠갑산, 장승공원, 장승",충청남도 청양군 대치면 장곡길119-17,충청남도 청양군 대치면 장곡리 75,36.40982229,126.8501828,2022-02-24,4590000,충청남도 청양군
대구 근대路야행(2회),청라언덕,2018-09-07,2018-09-08,"문화(재)시설 오픈하우스, 전시, 공연, 체험, 강좌, 투어 등",대구광역시 중구,대구광역시 중구,문화재청+대구광역시,053-661-2195,,,"대구광역시 중구 달구벌대로 2035 (동산동, 동산아파트)",대구광역시 중구 동산동 357,35.8670786,128.5860498,2021-08-20,3410000,대구광역시 중구
김광석노래부르기,신천둔치(대봉교아래),2018-09-15,2018-09-15,"노래경연, 초청가수콘서트, 부대행사",대구문화방송㈜,대구광역시 중구,대구광역시+대구광역시 중구,053-661-2174,,,대구광역시 수성구 수성로72길 43 (수성동2가),대구광역시 수성구 수성동2가 37-6,35.8561652,128.6162623,2021-08-20,3410000,대구광역시 중구
김광석노래부르기,신천둔치(대봉교아래),2019-09-21,2019-09-21,"김광석노래경연, 초청가수콘서트, 부대행사",대구문화방송㈜,대구광역시 중구,대구광역시+대구광역시 중구,053-661-2174,,,대구광역시 수성구 수성로72길 43 (수성동2가),대구광역시 수성구 수성동2가 37-6,35.8561652,128.6162623,2021-08-20,3410000,대구광역시 중구
고창모양성제,모양성 일원,2020-10-21,2020-10-25,"거리퍼레이드, 답성놀이, 강강술래 등",(사)모양성보존회,(사)모양성보존회,"국방부, 전라북도, 고창군, 한빛원자력",063-560-2454,http://www.gochang.go.kr/tour/index.gochang?menuCd=DOM_000000403004000000,"주야간 답성놀이, 강강술래, 공성전, 전통무예시연, 원님행차, 축하공연 등",전라북도 고창군 고창읍 중앙로 292,전라북도 고창군 고창읍 교촌리 55-2,35.43534518,126.7066502,2020-11-06,4780000,전라북도 고창군
고창청보리밭축제(취소),고창군 공음면 학원농장 일원,2019-04-20,2019-05-12,"청보리밭사잇길걷기, 주말문화행사, 상설전시 및 연계행사 등",고창청보리밭축제위윈회,고창청보리밭축제위윈회,"고창군, 한수원(주)한빛원자력본부, 농협 고창군지부",063-562-9897,http://www.gochang.go.kr/tour/index.gochang?menuCd=DOM_000000403005000000,"기념식, 공연, 판매부스 등",전라북도 고창군 공음면 학원농장길 158-6,,35.37610584,126.543619,2020-11-06,4780000,전라북도 고창군
동학농민혁명 무장기포기념제,동학농민혁명 무장기포지,2020-04-25,2020-04-25,"출정식, 진격로 걷기, 비기탈취 및 무혈입성재연, 기념식 등",동학농민혁명무장기포기념제,동학농민혁명무장기포기념제,"고창군, 한수원(주)한빛원자력본부",063-560-2461,http://www.gochang.go.kr/donghak/index.gochang?menuCd=DOM_000001104002001000&&cpath=2Ftour,"동학농민혁명무장기포기념제, 무장읍성축제 등",전라북도 고창군 공음면 선운대로 308,전라북도 고창군 공음면 구암리 589-2,35.4037328,126.4955322,2020-11-06,4780000,전라북도 고창군
고창복분자와수박축제(취소),선운산도립공원,2019-06-21,2019-06-23,"기념식,복분자 수박관련 체험, 농특산품판매 등",고창복분자와수박축제위원회,고창복분자와수박축제위원회,"고창군, 한수원(주)한빛원자력본부, 농협 고창군지부",,http://www.gochang.go.kr/tour/index.gochang?menuCd=DOM_000000403007000000,"기념식,복분자 수박관련 체험, 농특산품판매 등",전라북도 고창군 아산면 선운사로 250,전라북도 고창군 아산면 삼인리 500,35.4976974802,126.5795174176,2020-11-06,4780000,전라북도 고창군
고창갯벌축제(취소),"만돌갯벌체험장, 하전갯벌체험장",2019-06-07,2019-06-09,"개막행사,갯벌체험,동죽시식회,동죽음식문화체험,갯벌체험,장어숭어잡기,갯벌카페,부대행사 등",고창갯벌축제위원회,고창갯벌축제위원회,"해양수산부, 전라북도, 고창군, 고창군수산업협동조합, 만월어촌계, 하전어촌계, 자율관리공동체, 한빛원전",063-560-2633,http://www.gochang.go.kr/tour/index.gochang?menuCd=DOM_000000403007000000,동호해수욕장,전라북도 고창군 심원면 애향갯벌로 320,,35.53007446,126.5150432,2020-11-06,4780000,전라북도 고창군
무장읍성축제(취소),무장읍성 일원,2019-05-14,2019-05-14,"고유제(진무제), 현감부임 행사, 떡메치기 등",(사)고창무장읍성보존회,(사)고창무장읍성보존회,"고창군, 영광한빛원자력본부, NH 농협 고창군지부, 관내 14개 읍?면",,,축성602주년 기념식,전라북도 고창군 무장면 무장읍성길 45,전라북도 고창군 고창군 무장면 성내리 156,35.41841778,126.5573463,2020-11-06,4780000,전라북도 고창군
고창해풍고추축제(보류),해리복지회관일원,2019-08-24,2019-08-25,"기념식, 고추품평회, 공연, 전시판매, 고추관련체험 등",고창해풍고추축제위원회,고창해풍고추축제위원회,"고창군, 한수원(주)한빛원자력본부, 농협 고창군지부",,http://www.gochang.go.kr/tour/index.gochang?menuCd=DOM_000000403006000000,"기념식, 고추품평회, 공연, 전시판매, 고추관련체험 등",전라북도 고창군 해리면 청해1길 15,전라북도 고창군 해리면 하련리 628-3,35.46113146,126.5378146399,2020-11-06,4780000,전라북도 고창군
공주 금강여름축제,고마아트센터,2019-07-26,2019-07-28,"국악&재즈공연, 프린지공연, 밴드경연대회, 물놀이 체험및 전시, 먹거리 운영 등",공주 금강여름축제조직위원회,공주시,,041-840-2056,,,충청남도 공주시 사곡면 마곡사로 854,충청남도 공주시 사곡면 운암리 722-4,36.55728753,127.0183843,2021-10-22,4500000,충청남도 공주시
제65회 백제문화제,금강신관공원 및 공산성 일원,2019-09-28,2019-10-06,"웅진파타지아, 웅진성퍼레이드, 체험마당, 먹거리마당, 농특산물판매 등",공주시백제문화선양위원회,백제문화제추진위원회,,041-840-8069,,,충청남도 공주시 신관동 553,충청남도 공주시 신관동 553,36.47835102,127.1204236,2021-10-22,4500000,충청남도 공주시
장수 한우랑 사과랑 축제,전라북도 장수군 의암공원 및 누리파크 일원,2021-10-28,2021-10-31,대표프로그램 등 7개분야 70여개 프로그램,사)장수한우랑사과랑축제추진위원회,전라북도 장수군,전라북도,063-350-2356,http://www.jangsufestival.com,장수 한우랑 사과랑 축제,전라북도 장수군 장수읍 한누리로 393,전라북도 장수군 장수읍 두산리 472,35.6411154,127.5181094,2021-12-03,4750000,전라북도 장수군
부산고등어축제,송도해수욕장 및 부산공동어시장 일원,2022-10-21,2022-10-23,"개막행사, 맨손 고등어잡기, 부산공동어시장 현장체험, 카약 타고 고등어 찾기, 고등어 종이배 경주대회, 전국 고등어요리 경연, 먹거리 한마당 등",(사)부산서구문화원,"부산광역시 서구, 대형선망수협","부산광역시, 부산공동어시장, 수협중앙회, 부산은행",051-240-4062,http://culture.bsseogu.go.kr,"송도해수욕장, 부산공동어시장, 송도구름산책로, 송도해상케이블카, 송도오토캠핑장, 송도해안볼레길, 암남공원",부산광역시 서구 송도해변로 100,부산광역시 서구 암남동 135-5,35.07682117,129.0180502,2022-02-08,3260000,부산광역시 서구
고려현종대왕축제,사천시청 노을광장 일원,2019-04-26,2019-04-28,“사주천년”이라는 역사적 자긍심과 지역의 정통성을 상징하는“용(龍)과 왕(王) (고려현종)”이라는 주제로 지역의 정체성과 공동체 의식을 표현한 축제,(재)사천문화재단,경상남도 사천시청,농협 사천시지부+한국남동발전+한국항공우주산업주식회사+BAT 코리아+한전ICPS주식회사+design made,055-835-6492,www.sccf.or.kr,"주민복지박람회, 구암제 동시 개최",경상남도 사천시 용현면 시청로 77,경상남도 사천시 용현면 덕곡리 501,35.00361954,128.0642075,2022-01-14,5340000,경상남도 사천시
청계산철쭉축제,옛골입구,2019-04-27,2019-04-27,청계산 철쭉제 개화시기 축제알림,고등동,청계산 철쭉축제추진위원회,,,,,경기도 성남시 수정구 상적동 216-2,경기도 성남시 수정구 상적동 216-2,37.42989648,127.0716316,2021-12-30,3780000,경기도 성남시
수정숯골축제,성남초교(미정),2019-10-01,2019-10-31,수정구지역이 조선시대 숯을 구어 장에 팔았던 숯골을 축제 유래로 수정구민 화합축제,수정구청 가정복지과,수정숯골축제 추진위원회,,,,,경기도 성남시 수정구 수정로 233,경기도 성남시 수정구 태평동 7236,37.44608464,127.1441445,2021-12-30,3780000,경기도 성남시
벌터산 축제,벌터산공원,2019-04-01,2019-04-30,지역주민 화합,수진2동,벌터산 축제 추진위원회,,,,,경기도 성남시 수정구 수진동 산41-3,경기도 성남시 수정구 수진동 산41-3,37.43593869,127.1256242,2021-12-30,3780000,경기도 성남시
당항포대첩축제,당항포관광지,2019-04-26,2019-04-28,"당항포대첩 재연, 공연등 다양한 문화행사",당항포대첩축제위원회,경상남도 고성군,,055-670-4505,http://dhp.goseong.go.kr/index.goseong,"송학동고분군, 고성박물관, 남산공원, 공룡박물관, 탈박물관, 상족암군립공원",경상남도 고성군 회화면 당항만로 1116,,35.0532261508,128.3920276219,2021-12-29,5420000,경상남도 고성군
용전들노래 가을걷이 한마당,용전동 용전마을 일원,2019-10-26,2019-10-26,"용전들노래재현, 체험마당, 공연 등(2020년 일정 미정)",사)용전들노래보존회,광주광역시 북구,북광주농협,062-410-6618,,,광주광역시 북구 용전마을길 42(용전동),광주광역시 북구 용전동 171-3,35.23893658,126.8973084,2021-12-28,3620000,광주광역시 북구
제21회 용전들노래 정기공연,용전동 용전마을 일원,2019-07-27,2019-07-27,"용전들노래재현, 체험마당, 공연 등(2020년 일정 미정)",사)용전들노래보존회,광주광역시 북구,북광주농협,062-410-6618,,,광주광역시 북구 용전마을길 42(용전동),광주광역시 북구 용전동 171-3,35.23893658,126.8973084,2021-12-28,3620000,광주광역시 북구
제20회 사상전통달집놀이,삼락생태공원,2021-02-26,2021-02-26,사상전통달집 놀이,사상문화원,사상구,,051-310-4062,http://www.sasangculture.or.kr/,코로나 19 관련 행사 취소,부산광역시 사상구 낙동대로 1310번길 19(삼락동),,35.17701002,128.9776397,2021-12-28,3390000,부산광역시 사상구
제12회 삼락벚꽃축제,삼락생태공원,2021-03-27,2021-03-28,삼락벚꽃축제,삼락동,사상구,,051-310-3002,,코로나 19 관련 행사 취소,부산광역시 사상구 낙동대로 1310번길 19(삼락동),,35.17701002,128.9776397,2021-12-28,3390000,부산광역시 사상구
제19회 사상강변축제,삼락생태공원,2021-10-09,2021-10-10,사상강변축제,사상문화원,사상구,,051-310-4062,http://www.sasangculture.or.kr/,코로나 19 관련 행사 취소,부산광역시 사상구 낙동대로 1310번길 19(삼락동),,35.17701002,128.9776397,2021-12-28,3390000,부산광역시 사상구
사하예술제,을숙도문화회관 일원,2019-10-18,2019-10-24,"전시, 공연, 체험프로그램, 연계 행사 등",사하구,사하구,,051-220-4062,https://www.saha.go.kr/tour/contents.do?mId=0202020000,,부산광역시 사하구 낙동남로1233번길 25,부산광역시 사하구 하단동 1151-14,35.110059,128.9449571,2021-12-28,3340000,부산광역시 사하구
감천문화마을 골목축제,감천문화마을 일원,2019-04-26,2019-04-28,"골목나라퍼레이드,청소년프린지어워드, 골목노래자랑, 마을연극 등",(사)감천문화마을 주민협의회,부산광역시 사하구,,051-204-1444,http://www.gamcheon.or.kr,,부산광역시 사하구 감내2로 203,부산광역시 사하구 감천동 1-14,35.09748815,129.010624,2021-12-28,3340000,부산광역시 사하구
하단포구웅어축제,하단동일원,2019-05-24,2019-05-26,"웅어회, 웅어구이 무료시식 및 판매 / 사물놀이, 어업인 장기자랑 및 노래자랑",하단어촌계,부산광역시 수협,사하구,051-220-4501,https://www.saha.go.kr/tour/contents.do?mId=0202050000,,부산광역시 사하구 하신번영로 253-1,부산광역시 사하구 하단동 1167-3,35.103745,128.9581946,2021-12-28,3340000,부산광역시 사하구
다대포어항문화축제,다대포 일원,2019-11-15,2019-11-16,"어류방류 체험, 생선회 정량달기 등",다대포어항문화축제추진위원회,부산광역시 수협(다대 어촌계),사하구,051-220-4501,https://www.saha.go.kr/tour/contents.do?mId=0202040000,,부산광역시 사하구 다대동로8번길 40,부산광역시 사하구 다대동 798-1,35.05560102,128.9724274,2021-12-28,3340000,부산광역시 사하구
청송사과축제,청송읍 용전천 변(현비암 일원),2022-11-02,2022-11-06,공연/경연/체험/전시/판매,청송군축제추진위원회,경상북도 청송군청,문화체육관광부+경상북도+청송군의회+청송경찰서+청송교육지원청+청송군관내농협+(사)청송사과협회+청송사과유통센터+(재)청송문화관광재단,054-870-6237,,,,경상북도 청송군 청송읍 월막리 368-2,36.43271991,129.0554862,2021-12-22,5160000,경상북도 청송군
황룡강 노란꽃잔치,황룡강변 일원,2019-10-01,2019-10-13,"공연,체험,판매행사 등",장성군축제위원회,장성군,전라남도,061-390-7242,https://www.jangseong.go.kr/home/tour_new/festival/festival_04/festival_04_04,"황룡강,옐로우시티",,전라남도 장성군 장성읍 기산리 461-1,35.3095104798,126.7815061792,2021-12-23,4980000,전라남도 장성군
황룡강 (洪)길동무 꽃길 축제,"황룡강변 일원, 홍길동테마파크",2019-05-24,2019-05-26,"공연,체험,판매행사 등",장성군축제위원회,장성군,"전라남도, 한국관광공사 등",061-390-7242,https://www.jangseong.go.kr/home/tour_new/festival/festival_04/festival_04_02,"황룡강,옐로우시티,홍길동테마파크",,전라남도 장성군 장성읍 기산리 461-1,35.3095104798,126.7815061792,2021-12-23,4980000,전라남도 장성군
백양단풍축제,"국립공원 백암산, 백양사 일원",2018-11-02,2018-11-11,"공연,체험,판매행사 등",장성군축제위원회,장성군,"전라남도, 한국관광공사 등",061-390-7242,https://www.jangseong.go.kr/home/tour_new/festival/festival_04/festival_04_05,"백양사,애기단풍",전라남도 장성군 북하면 백양로 1239,전라남도 장성군 북하면 약수리 26,35.43972586,126.8828597,2021-12-23,4980000,전라남도 장성군
제13회 진안고원 수박축제,동향면 체련공원 일원,2021-07-31,2021-08-01,수박판매외(코로나19 확산방지를 위한 축제 취소),진안고원수박축제추진위원회,전라북도 진안군,지역 유관기관,063-430-2393,https://jinan.go.kr/tour/sub_2/?p=1&n=4,,전라북도 진안군 동향면 진성로 1687,전라북도 진안군 동향면 능금리 2231-50,35.8414737432,127.5747111364,2021-12-31,4730000,전라북도 진안군
2021 진안홍삼축제,마이산 북부일원,2021-10-08,2021-10-10,홍삼판매 및 문화공연,진안홍삼축제추진위원회,전라북도 진안군,전라북도외,063-430-2392,https://www.jinan.go.kr/festival/,,전라북도 진안군 진안읍 마이산로 160,전라북도 진안군 진안읍 단양리 778-3,35.773251,127.4162558924,2021-12-31,4730000,전라북도 진안군
배내골고로쇠축제,배내골홍보관,2021-03-02,2021-03-03,"(미정)고로쇠약수기원제례,시음회, 문화공연 및 장기자랑",배내골주민위원회,배내골주민위원회,경상남도 양산시,055-364-7778,http://tour.yangsan.go.kr/,,경상남도 양산시 원동면 배내로 431,경상남도 양산시 원동면 선리 1421-5,35.4865567971,128.9855479781,2021-12-31,5380000,경상남도 양산시
원동청정미나리축제,함포마을일원,2021-03-01,2021-03-31,(미정)청정 미나리 시식 및 판매,원동청정미나리연구회,원동청정미나리연구회,경상남도 양산시,055-392-3232,http://tour.yangsan.go.kr/,,경상남도 양산시 원동면 원동로 1708,경상남도 양산시 원동면 원리 414-8,35.38015379,128.9211173,2021-12-31,5380000,경상남도 양산시
배내골사과축제,양산배내골 홍보관,2021-11-03,2021-11-04,"(축제취소)시식회,사과빨리먹기대회,노래자랑,풍물놀이",배내골주민위원회,배내골주민위원회,경상남도 양산시,055-364-7778,http://tour.yangsan.go.kr/,,경상남도 양산시 원동면 배내로 431,경상남도 양산시 원동면 선리 1421-5,35.4865567971,128.9855479781,2021-12-31,5380000,경상남도 양산시
원동매화축제,"원동교 특설무대, 쌍포매실다목적광장",2021-03-13,2021-03-14,"(축제취소)매화가족 참여마당, 매화향 음악회, 매실청정미나리 시식 및 판매, 체험행사",원동매화축제추진위원회,원동매화축제추진위원회,경상남도 양산시,055-392-3232,http://www.yangsanfes.com/,,경상남도 양산시 원동면 원동로 2220,경상남도 양산시 원동면 영포리 537,35.42085217,128.9410364,2021-12-31,5380000,경상남도 양산시
양산웅상회야제,웅상체육공원,2021-05-11,2021-05-12,"(축제취소)전국듀엣가요제,북페스티벌,웅상풍물한마당,양산시민씨름대회, 천성산철쭉제, 다문화축제, 전시체험, 웅상농청장원놀이 등",양산웅상회야제추진위원회,양산웅상회야제추진위원회,"양산시, 양산시의회",055-392-2547,http://www.yangsanfes.com/,,경상남도 양산시 배움터길60-19,경상남도 양산시 평산동 283,35.37762785,129.1434288,2021-12-31,5380000,경상남도 양산시
양산삽량문화축전,양산천둔치일원,2021-10-11,2021-10-13,"개막식,축하공연,참여프로그램 등",양산삽량문화축전추진위원회,양산시,"문화관광체육부,경상남도,양산문화원",055-392-2547,http://www.yangsanfes.com/,,경상남도 양산시 중앙로 39-1,경상남도 양산시 남부동 505,35.33345075,129.036759,2021-12-31,5380000,경상남도 양산시
양산국화축제,통도사 입구광장,2021-10-31,2021-11-14,"전시국화,농산물 직거래장터, 특별한 결혼식 등",양산시,양산시,경상남도 양산시,055-392-5342,http://www.yangsanfes.com/,,경상남도 양산시 하북면 통도사로 108,경상남도 양산시 하북면 지산리 산83-1,35.4754091197,129.0563671778,2021-12-31,5380000,경상남도 양산시
영도다리축제,"아미르공원, 영도대교 일원, 영도 주요관광지",2021-10-15,2021-10-17,"온라인(개막주제공연, 공연(경연)프로그램, 등+오프라인(스탬프 투어등)",영도문화원,영도구,,051-419-4064,http://www.yeongdo.go.kr/ydfestival.web,,부산광역시 영도구 해양로301번길 55,부산광역시 영도구 동삼동 1165,35.07714964,129.0820100967,2021-12-30,3280000,부산광역시 영도구
동해무릉제,천곡로타리 일원,2019-10-04,2019-10-06,"개막식, 퍼레이드, 공연행사, 체험행사, 동대항 민속경기, 민속예술시연 등",동해문화원,강원도 동해시청,강원도 동해시청+동해시의회,033-530-2111,http://www.dh.go.kr/tour/sub.htm?nav_code=tou1497764548,,강원도 동해시 중앙로250 (천곡동),강원도 동해시 천곡동 1090-19,37.5230127,129.1143227,2021-12-27,4210000,강원도 동해시
양평단월고로쇠축제,단월레포츠공원,2019-03-16,2019-03-17,양평 고로쇠축제는 물맑은 양평의 청정지역에서만 나오는 소리산 고로쇠 수액으로 매년 3월에 개최되는 축제이다,단월면,단월고뢰쇠축제추진위원회,양평군+단월면,031-770-3199,www.양평고로쇠축제.com,,경기도 양평군 단월면 보룡길 53,경기도 양평군 단월면 보룡리 343-2,37.53855944,127.672992,2021-12-27,4170000,경기도 양평군
양평산수유한우축제,개군레포츠공원,2019-04-06,2019-04-07,양평 산수유축제는 노랑 산수유 꽃이 필 4월 주읍리 등 마을길을 걷고 개군한우를 먹으며 즐길수 있는 축제이다,개군면,양평산수유축제추진위원회,개군농업협동조합 등,031-770-3341,www.yp21.go.kr,,경기도 양평군 개군면 자진개1길 83,경기도 양평군 개군면 하자포리 375,37.43277374,127.5313533,2021-12-27,4170000,경기도 양평군
용문산산나물축제,용문산관광지일대,2021-05-01,2021-05-09,"양평 용문산 산나물 축제는 산나물의 맛과 향기를 느낄수 있는 신나는 공연, 즐거운 체험과 전시, 산나물 요리등 다채로운 축제",양평군,양평군,경기도+경기관광공사,031-770-2308,www.ypsannamul.kr,용문역 산나물축제,경기도 양평군 용문면 용문산로 782,경기도 양평군 용문면 신점리 625,37.55023222,127.5704646,2021-12-27,4170000,경기도 양평군
양평물축제,옥천레포츠공원,2019-07-26,2019-07-28,양평 물축제는 옥천면 사탄천 일대에서 가족과 함께 시원한 여름을 즐기는 축제,옥천면물축제추진위원회,옥천면물축제추진위원회,양평군+옥천면,031-770-3155,https://okcheonwater.modoo.at/,,경기도 양평군 옥천면 옥천체육공원길 66,경기도 양평군 옥천면 옥천리 767,37.52001447,127.4561346,2021-12-27,4170000,경기도 양평군
양평부추축제,양동역일대,2019-09-28,2019-09-29,양평 부추축제는 양동면의 특산품인 부추로 다양한 음식과 더불어 을미의병 발상지로서 의병출정식 등 행사도 볼수 있다.,양평부추축제추진위원회,양평부추축제추진위원회,양평군,031-774-2583,,,경기도 양평군 양동면 양동역길 19,경기도 양평군 양동면 쌍학리 223-2,37.42030404,127.7544833,2021-12-27,4170000,경기도 양평군
양평김장보쌈축제,물맑은양평종합운동장,2021-11-01,2021-11-30,양평 김장보쌈축제는 11월 김장철을 맞아 김장체험 및 김치를 살수 있는 먹거리 축제이다,양평농촌나드리,양평농촌나드리,양평군,031-774-5427,https://kimchifestival.modoo.at/,,경기도 양평군 양평읍 종합운동장로 7,경기도 양평군 양평읍 도곡리 산63-1,37.49038171,127.5235879,2021-12-27,4170000,경기도 양평군
모란축제추진위원회,모란오거리쉼터,2019-10-01,2019-10-31,지역상인들과 시민화합의장 마련,성남동,성남동 상가번영회,,,,,경기도 성남시 중원구 제일로 35번길 51,경기도 성남시 중원구 성남동 3439,37.4320045,127.1315674,2021-12-30,3780000,경기도 성남시
은행골한마음잔치,은행2동 초등학교,2019-05-01,2019-05-31,은행2동 350년 된 은행나무 보호수 행목제 시작으로 부대행사,은행2동,은행골 한마음잔치 추진위원회,,,,,경기도 성남시 중원구 순환로 447번길 11,경기도 성남시 중원구 은행동 652,37.46100227,127.1709005,2021-12-30,3780000,경기도 성남시
중원한마당축제,종합운동장보조구장(미정),2019-09-01,2019-09-30,"중원구민 한마당 음악축제, 주민자치센터 작품 발표",중원구청 가정복지과,중원한마당축제추진위원회,,,,,경기도 성남시 중원구 광명로 377,경기도 성남시 중원구 금광동 2685,37.44885031,127.167697,2021-12-30,3780000,경기도 성남시
분당구민 한마음 축제,야외공연장 중앙공원(미정),2019-10-01,2019-10-31,"행복한 분당, 화합하고 하나되는 어울림 마당 조성",분당구청 가정복지과,분당 아트 페스티벌위원회,,,,,경기도 성남시 분당구 성남대로 550,경기도 성남시 분당구 수내동 65,37.38030721,127.1211791,2021-12-30,3780000,경기도 성남시
2021 김포 평화누리길 걷기프로그램,평화누리길1코스,2021-11-01,2021-11-30,언택트 트레킹 프로그램 운영,경기관광공사,김포시,,031-956-8319,,,,경기도 김포시 대곶면 대명리 551-19,37.64048159,126.5409612,2022-02-14,4090000,경기도 김포시
고려산진달래축제,고인돌 광장 등,2019-04-20,2019-04-28,진달래군락지 관람 진달래 체험전 등,강화군문화축제추진위원회,강화군,,032-930-3623,http://www.ganghwa.go.kr/open_content/festival/,,인천광역시 강화군 하점면 강화대로 994-19,인천광역시 강화군 하점면 부근리 350-4,37.7737095237,126.4353364918,2019-09-20,3570000,인천광역시 강화군
종로맛길축제,종로,2021-10-01,2021-10-31,"개폐막 공연, 무대행사, 기타행사 등(미정)",종로맛집골목상인회 협동조합,종로맛집골목상인회 협동조합,,053-661-2645,http://www.jung.daegu.kr/,개최일자 미정,대구광역시 중구 국채보상로139길 1(동인동2가),,35.86932522,128.6061572,2021-08-10,6270000,대구광역시
용암산성 옥샘문화제,불로천,2021-10-01,2021-10-31,"제례행사, 공산농요 등",용암산성 옥샘문화제 추진위원회,용암산성 옥샘문화제 추진위원회,,053-662-3082,http://www.dong.daegu.kr/,,대구광역시 동구 아양로 207(신암동),,35.88681058,128.6360751,2021-08-10,6270000,대구광역시
팔공산 단풍축제,팔공산 동화지구,2021-10-01,2021-10-31,"단풍가요제, 단풍길 걷기대회, 축하공연",팔공산 동화지구 상가번영회,팔공산 동화지구 상가번영회,,053-982-0103,http://www.dong.daegu.kr/,개최일자 미정,대구광역시 동구 아양로 207(신암동),,35.88681058,128.6360751,2021-08-10,6270000,대구광역시
달구벌목민관축제,서구 일대,2021-10-01,2021-10-31,"달구벌목민관 부임행차 재현 퍼레이드, 달구벌 목민관 추원제",대구광역시 서구 문화홍보과,대구광역시 서구 문화홍보과,,053-663-2184,http://www.dgs.go.kr,개최일자 미정,대구광역시 서구 국채보상로 257(평리동),,35.87232184,128.5592911,2021-08-10,6270000,대구광역시
대덕제 대구앞산축제,앞산,2021-09-01,2021-12-31,"앞산트레일(팸)투어, 앞산콘서트, 앞산이야기극 등(일정 미정)",남구문화행사추진위원회,남구문화행사추진위원회,,053-664-3262,http://www.nam.daegu.kr/,개최일자 미정,대구광역시 남구 이천로 51(봉덕동),,35.84594995,128.5975989,2021-08-10,6270000,대구광역시
신천 음악버스킹,신천둔치,2021-09-01,2021-12-31,"신천달빛버스킹, THE LIVE, 아이스 이벤트, 쿨존 등",남구문화행사추진위원회,남구문화행사추진위원회,,053-664-3262,http://www.nam.daegu.kr/,개최일자 미정,대구광역시 남구 이천로 51(봉덕동),,35.84594995,128.5975989,2021-08-10,6270000,대구광역시
대구할로윈축제,앞산 맛길,2021-10-01,2021-10-31,"할로윈 퍼레이드, 할로윈 코스튬콘테스트 등",사단법인공동체디자인연구소,대구광역시 남구 문화관광과,,053-664-2174,http://www.nam.daegu.kr/,개최일자 미정,대구광역시 남구 이천로 51(봉덕동),,35.84594995,128.5975989,2021-08-10,6270000,대구광역시
금호강바람소리길축제,금호강 둔치,2021-10-02,2021-10-03,"마칭퍼레이드, 금호강 생태전시, 체험부스 등",재단법인행복북구문화재단,대구광역시 북구 문화예술과,,053-665-2172,http://www.buk.daegu.kr/,,대구광역시 북구 옥산로 65(침산동),,35.8856843,128.5827802,2021-08-10,6270000,대구광역시
논두렁밭두렁축제,경북농업기술원,2021-10-01,2021-10-31,"허수아비 전시회, 체험프로그램, 버스킹 등","선린종합사회복지관,함지노인복지관",강북풀뿌리단체협의회,,053-326-0645,http://www.buk.daegu.kr/,,대구광역시 북구 옥산로 65(침산동),,35.8856843,128.5827802,2021-08-10,6270000,대구광역시
수성못페스티벌,수성못,2021-10-01,2021-10-03,"지역 예술인 문화공연, 음악불꽃쇼, 들안길 푸드 페스티벌 등",재단법인수성문화재단,대구광역시 수성구 문화체육과,,053-668-1504,http://www.suseong.kr/,,대구광역시 수성구 달구벌대로 2450(범어동),,35.85820008,128.6306298,2021-08-10,6270000,대구광역시
장미꽃 필 무렵,이곡장미공원,2021-05-20,2021-05-22,"축하콘서트, 버스킹 공연, 장미체험부스 운영",재단법인달서문화재단,재단법인달서문화재단,,053-584-9712,http://www.dalseo.daegu.kr/,,대구광역시 달서구 학산로 45(월성동),,35.82991524,128.5328365,2021-08-10,6270000,대구광역시
달성 100대 피아노,사문진 나루터,2021-10-01,2021-10-31,"100인 피아니스트 공연, 유명 아티스트 초청 및 협연",재단법인달성문화재단,대구광역시 달성군 문화체육과,,053-668-2172,http://www.dalseong.daegu.kr/,개최일자 미정,대구광역시 달성군 논공읍 달성군청로 33,,35.77466287,128.4313916,2021-08-10,6270000,대구광역시
제2회 비아마을 큰잔치,비아동 공영주차장,2017-10-21,2017-10-21,"문화공연, 주민장기자랑, 체험 및 먹거리 부스운영 등",비아마을 축제 추진위원회,광주광역시 광산구 비아동,,,,,광주광역시 광산구 비아중앙로 23-6,,35.2210952,126.8244895,2019-01-01,3630000,광주광역시 광산구
첨단1동 마을축제,쌍암공원,2017-10-14,2017-10-14,"중고장터, 마을운동회, 문화공연, 버스킹, 체험행사 등",첨단1동주민자치위원회,광주광역시 광산구 첨단1동,,,,,광주광역시 광산구 첨단중앙로182번길 39,,35.2222110,126.8443276,2019-01-01,3630000,광주광역시 광산구
광산우리밀축제,송산유원지,2017-05-26,2017-05-28,국산밀 홍보,광산우리밀축제추진위원회,광주광역시 광산구청,,062-960-8493,http://www.gswoorimil.kr,,광주광역시 광산구 박호등임로 95,,35.1631672,126.7399623,2019-01-01,3630000,광주광역시 광산구
제5회 광산구 세계음식문화축제,수완호수공원,2017-05-21,2017-05-21,"기념식, 세계음식체험, 문화다양성 체험부스, 무지개나눔장터, 문화공연 등",광산구건강가정·다문화가족지원센터,"광산구, 광주문화재단",,,,,광주광역시 광산구 장신로82번길 57,,35.1880553,126.8201971,2019-01-01,3630000,광주광역시 광산구
교동시장한마음축제,교동시장,2021-10-01,2021-10-31,"교동시장보물찾기, 추억의 낭만 DJ , 사진전 등",교동시장활성화구역상인회,대구광역시 중구 일자리경제과,,053-427-0443,http://www.jung.daegu.kr/,개최일자 미정,대구광역시 중구 국채보상로139길 1(동인동2가),,35.86932522,128.6061572,2021-08-10,6270000,대구광역시
빨간구두이야기,향촌동 수제화골목,2021-10-01,2021-10-31,"수제화 전시 및 체험행사, 가요제, 플리마켓",수제화협회,대구광역시 중구 일자리경제과,,053-253-9245,http://www.jung.daegu.kr/,개최일자 미정,대구광역시 중구 국채보상로139길 1(동인동2가),,35.86932522,128.6061572,2021-08-10,6270000,대구광역시
대구화교중화문화축제,화교거리,2021-10-01,2021-10-31,"중국용춤·사자춤, 중화전통의상, 음식, 놀이 등",대구화교협회조직위원회,대구화교협회,,053-255-0561,http://www.jung.daegu.kr/,개최일자 미정,대구광역시 중구 국채보상로139길 1(동인동2가),,35.86932522,128.6061572,2021-08-10,6270000,대구광역시
봉산미술제,봉산문화거리,2021-10-08,2021-10-10,"도슨트 아트투어, 온라인 VR전시, 온라인 미술작품 경매 등",봉산문화협회,봉산문화협회,,053-425-6845,http://www.jung.daegu.kr/,,대구광역시 중구 국채보상로139길 1(동인동2가),,35.86932522,128.6061572,2021-08-10,6270000,대구광역시
아산성웅이순신축제,온양온천역 광장 및 시내일원,2019-04-24,2019-04-28,"승전행렬 퍼레이드, 개폐막공연, 전시체험 및 기타부대행사",(재)아산문화재단,충청남도 아산시,,041-540-2550,http://culture.asan.go.kr/_esunshin/2017/index.asp,,충청남도 아산시 온천대로 1496,충청남도 아산시 온천동 56-9,36.78074391,127.0022181,2021-08-19,4520000,충청남도 아산시
신정호 별빛축제,아산시 신정호 야외음악당 및 잔디 일원,2021-07-23,2021-08-15,"LED쉼터, 체험관, 포토존",(재)아산문화재단,충청남도 아산시,,041-540-2550,http://culture.asan.go.kr/_sinjungho/,,충청남도 아산시 신정로 616,충청남도 아산시 방축동 5,36.77260735,126.9831403,2021-08-19,4520000,충청남도 아산시
설화예술제,신정호 야외음악당 및 이순신체육관,2019-09-27,2019-09-29,"개폐막식, 지역예술인창작발표 공연 및 전시",(사)한국예총 아산지회,충청남도 아산시,,041-540-2087,,,충청남도 아산시 신정로 616,충청남도 아산시 방축동 5,36.77260735,126.9831403,2021-08-19,4520000,충청남도 아산시
여르미오페스티벌,안산시 문화광장,2018-08-04,2018-08-04,대중예술축제,안산문화재단,안산문화재단,,031-481-4030,https://www.ansanart.com//lay2/S1T54C56/contents.do,,경기도 안산시 단원구 화랑로 312,경기도 안산시 단원구 고잔동 817,37.318426,126.823108,2021-08-31,3930000,경기도 안산시
제6회 상록수문화제,"본오3동공영주차장, 매화길, 상록수역 앞 광장",2018-09-15,2018-09-15,"기념음악회, 체험박람회, 작품발표회, 거리퍼레이드 등",안산시,안산시,국가보훈처,031-481-3040,https://www2.ansan.go.kr/choiyongshin/main/main.do,,경기도 안산시 상록구 샘골서길 64,경기도 안산시 상록구 본오동 879-4,37.299644,126.862700,2021-08-31,3930000,경기도 안산시
2018 안산시 평생학습 한마당 & 제8회 안산시도서관책문화축제,안산 호수공원 중앙광장,2018-10-09,2018-10-09,"도서관홍보, 체험, 북콘서트, 전시 등",안산중앙도서관,안산중앙도서관,,031-481-3862,http://lib.ansan.go.kr,,경기도 안산시 상록구 해안로 561(사동),경기도 안산시 상록구 사동 1509,37.298403,126.819135,2021-08-31,3930000,경기도 안산시
2018 안산 김홍도축제,화랑유원지,2018-10-12,2018-10-14,"김홍도마을 재현, 김홍도 마당극, 사생대회 등",안산시,안산시,"문화체육관광부, 한국관광공사, 경기관광공사, 경기도안산교육지원청, (사)한국미술협회, (사)안산시관광협의회 등",031-481-3059,https://tourinfo.ansan.go.kr/main.do,,경기도 안산시 단원구 동산로 268,경기도 안산시 단원구 초지동 667,37.325674,126.813771,2021-08-31,3930000,경기도 안산시
부산 차이나타운특구 문화축제,"부산역 광장, 차이나타운특구 일원",2020-10-16,2020-10-18,"볼거리, 먹거리, 체험 프로그램 구성,중국문화원, 중국유학생 등 다양한 채널을 통한 중국전통공연과 한국을 대표할 수 있는 문화공연 및 체험 등 배치",부산차이나타운축제추진위원회,부산 동구,,051-440-4062,http://tour.bsdonggu.go.kr/,,부산광역시 동구 초량중로 36 (초량동),부산광역시 동구 초량동 546,35.11507608,129.0375502,2020-05-26,3270000,부산광역시 동구
외암민속마을 짚풀문화제,외암민속마을일원(아산시 송악면 외암리),2000-10-01,2019-10-20,전통문화(짚&풀)를 주제로한 공연/재연/체험행사 프로그램,(사)외암민속마을보존회,충청남도 아산시,,041-536-8458,www.oeam.co.kr,,충청남도 아산시 송악면 외암민속길 5,충청남도 아산시 송악면 외암리 258-3,36.73032636,127.0137712,2021-08-19,4520000,충청남도 아산시
평창송어축제,진부면 오대천일원,2019-12-28,2020-02-02,송어얼음낚시+송어맨손잡기,평창송어축제위원회,강원도 평창군,"문화체육관광부,강원도, 한국관광공사",033-336-4000,http://www.festival700.or.kr,주변관광지 및 행사정보제공,강원도 평창군 진부면 경강로 3562,강원도 평창군 진부면 하진부리 325,37.6332195,128.5570386,2021-09-15,4280000,강원도 평창군
대관령눈꽃축제,대관령면 횡계리 송천일원,2020-01-17,2020-01-27,눈조각전시+눈썰매체험,대관령면축제위원회,강원도 평창군,평창군,033-335-3995,http://www.snowfestival.net,주변관광지 및 행사정보제공,강원도 평창군 대관령면 사부랑길224-2,강원도 평창군 대관령면 횡계리 661,37.6723201,128.710380,2021-09-15,4280000,강원도 평창군
오대산문화축전,오대산 월정사,2020-10-08,2020-10-11,산사음악회+전시+불교문화체험,월정사,강원도 평창군,강원도,033-339-6800,http://www.woljeongsa.org,주변관광지 및 행사정보제공,강원도 평창군 진부면 오대산로 413-28,강원도 평창군 진부면 동산리63-9,37.73403976,128.5875972,2021-09-15,4280000,강원도 평창군
제15회 파주개성인삼축제(온라인판매),임진각 광장,2021-10-16,2021-10-17,"파주개성인삼 전시 및 판매, 농특산물 홍보 및 판매, 각종 공연 및 체험행사 등",파주개성인삼축제추진위원회,파주시,,031-940-5282,http://tour.paju.go.kr,,경기도 파주시 임진각로177,경기도 파주시 문산읍 마정리 1325-1,37.88953876,126.7401859,2021-09-11,4060000,경기도 파주시
2022 울산 마두희 축제,울산 중구 성남동 일원,2022-06-03,2022-06-05,큰줄다리기 및 부대행사,울산마두희축제추진위원회,울산마두희축제추진위원회,울산광역시 중구,052-290-3662,,,울산광역시 중구 학성로,울산광역시 중구 성남동,,,2022-01-17,3690000,울산광역시 중구
2022년 외솔한글한마당,외솔기념관 및 중구 원도심 일원,2022-10-07,2022-10-09,"한글을 주제로 한 전시, 체험, 경연, 공연 등",ubc 울산방송,ubc 울산방송,울산광역시+울산광역시 중구+외솔회,052-290-3642,,,"울산광역시 중구 문화의거리, 시계탑거리, 병영12길 15 등",,,,2022-01-17,3690000,울산광역시 중구
2022 문화의거리 현대미술제,울산 중구 문화의거리,2022-07-02,2022-07-10,갤러리 및 거리 미술작품 전시,문화의거리 현대미술제 울산운영위원회,경상일보,울산광역시+울산광역시 중구,052-290-3666,,,울산광역시 중구 옥교동 277-1,울산광역시 중구 옥교동 277-1,,,2022-01-17,3690000,울산광역시 중구
2022년 울산병영3.1만세운동 제22회 재현행사,울산 중구 병영 일원,2022-04-04,2022-04-05,"위령제, 삼일만세운동재현행사 및 부대행사 등",중구문화원,중구문화원,울산광역시 중구+보훈지청,052-290-3664,,,울산광역시 중구 남외동 488-5,울산광역시 중구 남외동 488-5,,,2022-01-17,3690000,울산광역시 중구
2022 소원 희망의 빛 거리,광진교 북단,2021-12-23,2022-02-28,"루미나리에(경관조명) 조성을 통한 꿈, 희망, 소원의 메시지 전달",서울특별시 광진구청,서울특별시 광진구청,,02-450-7594,,,,서울특별시 광진구 광장동 188-14,37.545960,127.109055,2022-01-17,3040000,서울특별시 광진구
2022 소원 희망의 빛 거리,광진숲나루,2021-12-23,2022-02-28,"루미나리에(경관조명) 조성을 통한 꿈, 희망, 소원의 메시지 전달",서울특별시 광진구청,서울특별시 광진구청,,02-450-7596,,,,서울특별시 광진구 구의동 산35-12,37.547559,127.097805,2022-01-17,3040000,서울특별시 광진구
2022 소원 희망의 빛 거리,아차산어울림 광장 주변,2021-12-23,2022-02-28,"루미나리에(경관조명) 조성을 통한 꿈, 희망, 소원의 메시지 전달",서울특별시 광진구청,서울특별시 광진구청,,02-450-7597,,,,서울특별시 광진구 광장동 산73-1,37.552144,127.099944,2022-01-17,3040000,서울특별시 광진구
의왕철도축제,"자연학습공원, 철도박물관, 조류생태과학관, 의왕역 등",2022-05-07,2022-05-08,"공연,전시,각종 체험프로그램 운영",의왕시축제추진위원회,경기도 의왕시청,,031-345-2532,https://www.uiwang.go.kr,,,경기도 의왕시 월암동 541,37.30710897,126.9531542,2022-01-05,4030000,경기도 의왕시
의왕백운호수축제,백운호수 공영주차장,2022-09-03,2022-09-04,"공연, 개폐막식, 시민참여 열린무대 등",의왕시축제추진위원회,경기도 의왕시청,,031-345-2533,https://www.uiwang.go.kr,,경기도 의왕시 백운로 526,,37.38321565,127.000756,2022-01-05,4030000,경기도 의왕시
2022 대전 서구힐링 아트페스티벌,보라매공원(서구청앞) 일원,2022-05-27,2022-05-29,아트마켓 등 7개분야 60여개 프로그램,"서구축제추진위원회, 대전광역시서구문화원, 한국예총대전광역시연합회",대전광역시 서구,미정,042-288-2742,http://www.seogu.go.kr/sorg/content.do?mnucd=SGMENU0500242,,대전광역시 서구 둔산서로 100,대전광역시 서구 둔산동 1544,36.35505601,127.3833576,2022-01-11,3660000,대전광역시 서구
제21회소래포구비대면축제,소래포구 일원(인천 남동구 논현동) 및 축제공식블로그,2021-10-22,2021-11-21,관광축제,남동구,남동구,,032-453-2142,blog.naver.com/soraefestival,"경관조명조성, 스탬프투어,온라인공모전 등 비대면 축제",인천광역시 남동구 아암대로 1454,인천광역시 남동구 논현동 775,37.38725249,126.7269798,2022-01-12,3530000,인천광역시 남동구
온택트 2021 강남페스티벌,코엑스일대,2021-10-01,2021-10-10,"미디어쇼, 미디어아트특별전, 영동대로 K-POP 콘서트 등",강남구,강남구,,02-3423-5534,https://www.gangnam.go.kr/gnfestival/,,서울특별시 강남구 영동대로 513,,,,2022-01-12,3220000,서울특별시 강남구
2021 내 집 앞 세계영화제,양재천 영동3교+영동5교 공연장,2021-06-18,2021-11-13,양재천을 배경으로 다양한 주제의 세계영화 12편 상영,강남구,강남구,,02-3423-5533,https://www.gangnamfilm.com,,서울특별시 강남구 도곡동 영동3교 개포동 영동5교,,,,2022-01-12,3220000,서울특별시 강남구
2019 보정역생활문화센터 <청춘파티  - 특별프로그램>,보정역생활문화센터,2019-12-13,2019-12-13,"강연자, 참여자가 ''인생'', ''청춘'', ''문화''를 키워드로 모여 능정적 참여자로서 서로에게 배우는 생활 속 프로그램",용인문화재단,용인문화재단,,031-260-3320,www.yicf.or.kr,,경기도 용인시 기흥구 용구대로 2585,경기도 용인시 기흥구 보정동 568 보정역 생활문화센터,37.31629272,127.1081614,2019-12-09,4050000,경기도 용인시
제24회 파주장단콩축제(온라인판매),임진각 광장,2021-11-26,2021-11-28,"파주장단콩 전시 및 판매, 농특산물 홍보 및 판매, 각종 공연 및 체험행사 등",파주장단콩축제추진위원회,파주시,,031-940-5281,http://tour.paju.go.kr,,경기도 파주시 임진각로177,경기도 파주시 문산읍 마정리 1325-1,37.88953876,126.7401859,2021-09-11,4060000,경기도 파주시
모두 다 함께 신명나게 놀자,꽃바위문화관 3층 다목적공연장,2020-10-15,2020-10-15,퓨전국악,울산광역시 동구청,꽃바위문화관,,052-209-4330,http://www.donggu.ulsan.kr/edu/menu_06/03.jsp,,울산광역시 동구 문현3길 6,울산광역시 동구 방어동 1120-1,35.48705813,129.4112633,2021-09-28,6310000,울산광역시
건반위 포핸즈의 아름다운 선율,꽃바위문화관 3층 다목적공연장,2020-10-29,2020-10-29,클래식,울산광역시 동구청,꽃바위문화관,,052-209-4330,http://www.donggu.ulsan.kr/edu/menu_06/03.jsp,,울산광역시 동구 문현3길 6,울산광역시 동구 방어동 1120-1,35.48705813,129.4112633,2021-09-28,6310000,울산광역시
감동과 즐거움을 선사하는 성악 앙상블,꽃바위문화관 3층 다목적공연장,2020-11-26,2020-11-26,성악,울산광역시 동구청,꽃바위문화관,,052-209-4330,http://www.donggu.ulsan.kr/edu/menu_06/03.jsp,,울산광역시 동구 문현3길 6,울산광역시 동구 방어동 1120-1,35.48705813,129.4112633,2021-09-28,6310000,울산광역시
청소년 힐링 페스티벌,꽃바위문화관 3층 다목적공연장,2020-12-10,2020-12-10,크로스오버,울산광역시 동구청,꽃바위문화관,,052-209-4330,http://www.donggu.ulsan.kr/edu/menu_06/03.jsp,,울산광역시 동구 문현3길 6,울산광역시 동구 방어동 1120-1,35.48705813,129.4112633,2021-09-28,6310000,울산광역시
매직스크린아트 가족극〈오버코트〉,꽃바위문화관 3층 다목적공연장,2020-12-16,2020-12-16,아동극,울산광역시 동구청,꽃바위문화관,,052-209-4330,http://www.donggu.ulsan.kr/edu/menu_06/03.jsp,,울산광역시 동구 문현3길 6,울산광역시 동구 방어동 1120-1,35.48705813,129.4112633,2021-09-28,6310000,울산광역시
울산옹기축제,울주군 외고산 옹기마을 일원,2020-11-06,2020-11-15,"찾아가는 옹기, 전국옹기가요제(온라인 및 드라이브 쓰루), 옹기TV방송국, 옹기축제 특별 주제관, 옹기 포토존 등",울산광역시 울주군,울산옹기축제추진위원회,"문화체육관광부, 울산광역시, 울산광역시의회, 울주군의회",052-227-4961,http://www.ulsanonggi.or.kr,,울산광역시 울주군 온양읍 외고산 3길 36,울산광역시 울주군 온양읍 고산리 501-18,35.435069,129.2795088,2021-09-28,6310000,울산광역시
우시산국축제,회야강 아리소 일원,2020-10-31,2020-10-31,농경문화생활과 창작예술문화 체험,우시산국축제추진위원회,우시산국축제추진위원회,"울산광역시 울주군, 울산광역시 울주군의회, 웅촌지역사회단체, 선갤러리문화관, 웅촌예술인협회",052-204-4715,,,,울산광역시 울주군 웅촌면 초천리 280-1,35.463038,129.213965,2021-09-28,6310000,울산광역시
울주세계산악영화제,영남알프스 복합웰컴센터 일원,2020-10-23,2020-10-27,"클라이밍, 모험과 탐험 등 7개 섹션으로 구성한 40개국 150편의 영화상영과 힐링트래킹, 클라이밍, 파쿠르, 영남알프스 VR 체험 등 다양한 참여행사와 공연ㆍ전시 행사 등을 통해 관람객에게 차별화된 볼거리를 제공",사단법인 울주세계산악영화제,사단법인 울주세계산악영화제,울산광역시 울주군의회,052-248-6451,http://www.umff.kr,,울산광역시 울주군 상북면 알프스온천5길 103-8,울산광역시 울주군 상북면 등억알프스리 517,35.55645417,129.0679842,2021-09-28,6310000,울산광역시
간절곶해맞이,간절곶공원,2020-12-31,2021-01-01,"해넘이 전야제, 해맞이행사",울주문화원+울산문화방송,울주군,울산광역시,052-204-0313,http://www.ulju.ulsan.kr/ulju,,울산광역시 울주군 서생면 간절곶1길 39-2,울산광역시 울주군 서생면 대송리 28-1,35.35897306,129.3602963,2021-09-28,6310000,울산광역시
이태원지구촌축제,이태원 관광특구 일원,2020-12-31,2020-12-31,"* 거리퍼레이드, 세계·한국음식부스 운영, 국가 홍보부스,   세계민속 공연* 문화체험, 이태원 특화 공연 및 관내 박물관 등 기관   참여 프로그램 등",(사)이태원관광특구연합회,(사)이태원관광특구연합회,,,,,이태원로,,,,2021-09-15,3020000,서울특별시 용산구
대한민국 국향대전,함평엑스포공원,2021-10-20,2021-11-10,"국화를 소재로 한 전시, 문화, 체험행사 및 우수특산품 전시, 판매 등",함평군축제추진위원회,함평군,미정,061-320-2213,www.hampyeong.go.kr,,전라남도 함평군 함평읍 곤재로 27,전라남도 함평군 함평읍 수호리 1153-1,35.05813923,126.5226056,2021-09-25,4960000,전라남도 함평군
광주 프린지페스티벌 유스퀘어광장,유스퀘어광장,2021-08-14,2021-08-14,"공연, 체험활동 및 플리마켓",광주문화재단,광주광역시,,062-670-7967,광주프린지페스티벌 - 광주거리예술축제 (fringefestival.kr),코로나 상황 대비 온오프라인 동시 운영,광주광역시 서구 무진대로 904,광주광역시 서구 광천동 49-1,35.16057564,126.8798721,2022-01-01,6290000,광주광역시
충장축제,광주광역시 동구 충장로,2021-10-13,2021-10-17,7080 레트로 축제,광주 동구,광주 동구청,문화체육관광부,062-608-2422,https://www.donggu.kr/index.es?sid=c8,https://korean.visitkorea.or.kr/detail/fes_detail.do?cotid=bcf209c6-3bc3-4b5b-b07d-75a22f0e40a4&big_category=undefined&mid_category=undefined&big_area=undefined,광주광역시 동구 서남로 1(서석동),광주광역시 동구 서석동 31,35.1461417,126.9230932,2022-01-01,6290000,광주광역시
광주문화재야행,광주광역시 동구 문화전당로 38,2021-09-03,2012-09-17,야간문화 향유 및 체험,광주 동구,광주 동구청,문화재청,062-608-8919,https://www.gjnight.com/,https://www.gjnight.com/,광주광역시 동구 예술길 18-1(궁동),광주광역시 동구 궁동 51-25,35.15009066,126.918158,2022-01-01,6290000,광주광역시
돗자리 야외 영화제,광주 동구 화산로 318-26 용산체육공원,2019-06-01,2019-06-01,야외영화 상영,광주 동구,광주 동구청,,062-608-2413,https://www.donggu.kr/menu.es?mid=a90405000000,,광주광역시 동구 서남로 1(서석동),광주광역시 동구 서석동 31,35.1461417,126.9230932,2022-01-01,6290000,광주광역시
광주 프린지 페스티벌,광주 동구 계림동 730 푸른길공원(지역이동하여 개최),2021-07-03,2021-10-02,거리예술축제,광주문화재단,광주강역시,,062-670-9647,http://fringefestival.kr/default/index.php,http://fringefestival.kr/default/index.php,광주광역시 남구 천변좌로 338번길 7,광주광역시 남구 구동 12,35.14790588,126.9078967,2022-01-01,6290000,광주광역시
온라인 어린이 가족문화축제 How fun 7,온라인,2021-08-04,2021-08-08,온라인 어린이 가족문화 축제,국립아시아문화전당,아시아문화원,,1899-5566,https://www.acc.go.kr/child/onlineHowFun7.do?PID=050401,https://www.acc.go.kr/child/onlineHowFun7.do?PID=050401,광주광역시 동구 문화전당로 38,광주광역시 동구 광산동 13,35.14691559,126.9199945,2022-01-01,6290000,광주광역시
2021  ACC  뮤직페스티벌,광주광역시 동구 국립아시아문화전당 어린이극장 어린이문화원,2021-08-20,2021-08-22,뮤직페스티벌,국립아시아문화전당,국립아시아문화전당,,062-601-4621,https://www.acc.go.kr/info/board/board.do?PID=0401&boardID=NOTICE&category=1&action=Read&idx=1500,https://www.acc.go.kr/info/board/board.do?PID=0401&boardID=NOTICE&category=1&action=Read&idx=1500,광주광역시 동구 문화전당로 38,광주광역시 동구 광산동 13,35.14691559,126.9199945,2022-01-01,6290000,광주광역시
대금산진달래축제,대금산 중턱,2022-04-01,2022-04-30,대금산에 만개하는 진달래를 배경으로 펼쳐지는 축제,대금산진달래축제추진위원회,대금산진달래축제추진위원회,,055-639-6724,,,,경상남도 거제시 연초면 명동리 산 21,34.954281,128.6999381,2022-01-07,5370000,경상남도 거제시
산방산삼월삼짇날축제,산방산 임도,2022-04-01,2022-04-30,따뜻한 봄기운이 감도는 삼월 삼짇날 산방산에서 열리는 축제,둔덕면번영회,경상남도 거제시 둔덕면,,055-639-6592,,,,경상남도 거제시 둔덕면 산방리 331-1,34.85879629,128.524091,2022-01-07,5370000,경상남도 거제시
양지암축제,양지암공원,2022-04-15,2022-04-30,푸른바다를 두른 양지암과 조각품의 아름다움에 취하다,양지암축제추진위원회,양지암축제추진위원회,,055-639-6797,,,,경상남도 거제시 능포동 408-2,34.87881823,128.736205,2022-01-07,5370000,경상남도 거제시
영암왕인문화축제,왕인박사유적지 일원,2021-04-01,2021-04-16,"왕인박사 업적 조명, 온라인 온택트 축제",영암군향토축제추진위원회,전라남도 영암군,,,,,전라남도 영암군 군서면 왕인로 440,,34.75653201,126.6291224,2022-01-19,4940000,전라남도 영암군
월출산국화축제,기찬랜드 일원,2019-10-29,2019-11-02,다양한 국화와 기찬랜드 경관을 활용한 전시 및 체험행사,전라남도 영암군,전라남도 영암군,,,,,전라남도 영암군 영암읍 기찬랜드로 19-10,,34.79156777,126.685372,2022-01-19,4940000,전라남도 영암군
마한축제,마한문화공원 일원,2019-10-12,2019-10-13,마한촌 조성 및 마한문화축제,마한축제추진위원회,전라남도 영암군,,,,,전라남도 영암군 시종면 남해당로 65,,34.89539368,126.5859195,2022-01-19,4940000,전라남도 영암군
영암호해맞이축제,삼호읍 호텔현대,2019-01-01,2019-01-01,영암호에 떠오르는 새해 첫 일출을 감상하는 해맞이 행사,영암문화원,전라남도 영암군,,,,,전라남도 영암군 삼호읍 대불로 91,,34.73347471,126.387386,2022-01-19,4940000,전라남도 영암군
2022년 연제고분판타지 축제,온천천시민공원 일원,2022-03-25,2022-03-27,"공연무대, 체험부스, 홍보부스 등",연제구축제추진위원회,연제구축제추진위원회,,051-665-4065,,,,부산광역시 연제구 거제동 1466-24,35.195922,129.082993,2022-01-19,3370000,부산광역시 연제구
장미꽃 필(feel)무렵,이곡장미공원,2022-05-20,2022-05-22,"언택트(비대면) 로즈 in 달서버스킹(유튜브 공개), 로즈 포토존 인증샷 이벤트",(재)달서문화재단,(재)달서문화재단,대구광역시+대구광역시 달서구+달서구의회,053-584-9771,http://www.dscf.or.kr,,대구광역시 달서구 선원남로 129,대구광역시 달서구 이곡동 1306-6,35.85741285,128.5144608,2022-01-11,3470000,대구광역시 달서구
단종문화제,장릉 및 영월읍 일원,2018-04-27,2018-04-29,"조신시대국장재현, 정순왕후선발대회, 야간칡줄다리기 등",영월문화재단,강원도 영월군,"문화체육관광부, 강원도, 강원랜드",033-375-6353,http://www.ywcf.com/,"장릉, 청령포, 단종, 동강둔치, 국장",강원도 영월군 영월읍 단종로 24,강원도 영월군 영월읍 영흥리 961-2,37.1860954916,128.4681824783,2020-01-01,4270000,강원도 영월군
동강국제사진제,동강사진박물관,2018-06-14,2018-07-21,"동강사진상, 워크숍, 사진예술전시",영월문화재단,강원도 영월군,강원도,033-375-6353,http://www.ywcf.com/,"동강사진상, 워크숍, 사진예술전시",강원도 영월군 영월읍 영월로 1909-10,강원도 영월군 영월읍 하송리 217-2,37.1819399427,128.4615510828,2020-01-01,4270000,강원도 영월군
영월동강뗏목축제,동강둔치 일원,2018-08-02,2018-08-05,"전통뗏목 시연, 맨손송어잡기, 래프팅 등 체험행사",영월문화재단,강원도 영월군,강원랜드,033-375-6353,http://www.ywcf.com/,"삼굿시연, 뗏목, 동강둔치, 래프팅, 카누, 물놀이",,강원도 영월군 영월읍 하송리 61-11,37.179437,,2020-01-01,4270000,강원도 영월군
김삿갓문화제,김삿갓유적지 일원,2018-10-05,2018-10-07,"조선시대영월과거대전, 백일장, 김삿갓 해학의 길 걷기 등",영월문화재단,강원도 영월군,"강원도, 강원랜드",033-375-6353,http://www.ywcf.com/,"김삿갓문학관, MTB라이딩, 김삿갓계곡, 전국휘호대회 등",강원도 영월군 김삿갓면 김삿갓로 216-22,강원도 영월군 김삿갓면 와석리 913,37.0794920057,128.6017366158,2020-01-01,4270000,강원도 영월군
영월동강겨울축제,동강둔치 일원,2016-12-24,2017-01-15,"맨손송어잡기, 연만들기, 철갑상어잡기, 눈썰매 등",영월문화재단,강원도 영월군,영월군사립박물관협회,033-375-6353,http://www.ywcf.com/,"맨손송어잡기, 연만들기, 철갑상어잡기, 눈썰매 등",,강원도 영월군 영월읍 하송리 61-11,37.179437,,2020-01-01,4270000,강원도 영월군
대구워터페스티벌,북성로 공구골목 일원,2017-07-30,2017-07-30,"물총놀이, 무대행사, 푸드트럭, 플리마켓, 주민쉼터 등",문화기업 더스타일,문화마을협동조합,대구광역시 중구+(사)글로벌도시관광+H56마케팅,053-661-2174,,,대구광역시 중구 북성로104,대구광역시 중구 북성로1가 96-2,35.87433558,128.5936894,2021-08-20,3410000,대구광역시 중구
대구 근대路야행,근대골목 일원(청라언덕~계산성당~약령시한의약박물관),2017-08-25,2017-08-26,"문화(재)시설 오픈하우스, 전시, 공연, 체험, 강좌, 투어 등",대구광역시 중구,대구광역시 중구,문화재청+대구광역시,053-661-2195,,,대구광역시 중구 달구벌대로 415길 49,대구광역시 중구 남성로 51-1,35.86851636,128.5899085,2021-08-20,3410000,대구광역시 중구
대구스트리트 모터 페스티벌,남산동 자동차골목,2017-10-21,2017-10-22,"자동차전시, 레이싱모델쇼, 공연 등",남산동자동차골목상점가상인회,남산동자동차골목상점가상인회,대구광역시 중구+대구광역시,053-661-3014,,,대구광역시 중구 명덕로35길 14,대구광역시 중구 남산동 2113-8,35.85747199,128.5883239,2021-08-20,3410000,대구광역시 중구
대구스트리트 모터 페스티벌,남산동 자동차골목,2018-10-06,2018-10-07,"자동차전시, 레이싱모델쇼, 공연 등",남산동자동차골목상점가상인회,남산동자동차골목상점가상인회,대구광역시 중구+대구광역시,053-661-3014,,,대구광역시 중구 명덕로35길 14,대구광역시 중구 남산동 2113-8,35.85747199,128.5883239,2021-08-20,3410000,대구광역시 중구
대구스트리트 모터 페스티벌,남산동 자동차골목,2019-05-18,2019-05-19,"자동차전시, 레이싱모델쇼, 공연 등",남산동자동차골목상점가상인회,남산동자동차골목상점가상인회,대구광역시 중구+대구광역시,053-661-2180,,,대구광역시 중구 명덕로35길 14,대구광역시 중구 남산동 2113-8,35.85747199,128.5883239,2021-08-20,3410000,대구광역시 중구
향촌동수제화골목 2017년「빨간구두 이야기」,향촌동수제화골목 일원,2017-10-28,2017-10-29,"무대행사, 체험행사, 부대행사 등",대구광역시 수제화협회,대구광역시 수제화협회,대구광역시 중구,053-661-2046,,,대구광역시 중구 서성로14길 78,대구광역시 중구 향촌동 42-2,35.8728473,128.591844,2021-08-20,3410000,대구광역시 중구
제1회 북성로 축제,북성로 공구골목 일원,2017-10-29,2017-10-29,"부스프로그램, 북성로 공업소 투어, 오픈 스튜디오(작가 공방 오픈), 거리전시 및 공연",(사)시간과공간연구소,대구광역시 중구,대구광역시 중구,053-661-2173,,,대구광역시 중구 북성로,대구광역시 중구 북성로,,,2021-08-20,3410000,대구광역시 중구
봉산도자기축제,봉산문화거리,2018-04-10,2018-04-16,"도예전시 및 부대행사(공방체험, 도슨트프로그램, 도예장터, 경매 등)",봉산문화협회,봉산문화협회,대구광역시 중구,053-661-2174,,,대구광역시 중구 봉산문화길 77,대구광역시 중구 봉산동 133-19,35.86339725,128.5965647,2021-08-20,3410000,대구광역시 중구
봉산도자기축제,봉산문화거리,2019-04-19,2019-04-21,"도예전시 및 부대행사(공방체험, 도슨트프로그램, 도예장터, 경매 등)",봉산문화협회,봉산문화협회,대구광역시 중구,053-661-2174,,,대구광역시 중구 봉산문화길 77,대구광역시 중구 봉산동 133-19,35.86339725,128.5965647,2021-08-20,3410000,대구광역시 중구
2018 대구약령시한방문화축제,약령시(약전골목) 일원,2018-05-03,2018-05-07,"경연, 참여, 체험, 전시, 공연, 먹거리 등",(사)약령시보존위원회,대구광역시+대구광역시 중구,문화체육관광부+한국관광공사+대구시 한약협회+대구시 한의사회+한약도매협회 대구시지회+(주)대구시한약재도매시장,053-661-2044,,,대구광역시 중구 달구벌대로 415길 49,대구광역시 중구 남성로 51-1,35.86851636,128.5899085,2021-08-20,3410000,대구광역시 중구
방천골목오페라축제,방천골목,2018-06-14,2018-06-16,"야외실경오페라, 아마추어칸초네경연대회, 갈라콘서트",방천골목오페라추진위원회,방천골목오페라추진위원회,"대구광역시, 대구광역시 중구",053-661-2174,,,대구광역시 중구 동덕로8길 26-11 (대봉동),대구광역시 중구 대봉동 31-62,35.85959529,128.606024,2021-08-20,3410000,대구광역시 중구
대구 근대路야행(1회),약령시일원,2018-08-24,2018-08-25,"문화(재)시설 오픈하우스, 전시, 공연, 체험, 강좌, 투어 등",대구광역시 중구,대구광역시 중구,문화재청+대구광역시,053-661-2195,,,대구광역시 중구 달구벌대로 415길 49,대구광역시 중구 남성로 51-1,35.86851636,128.5899085,2021-08-20,3410000,대구광역시 중구
2022 유달산 봄축제,유달산 일원,2022-04-09,2022-04-10,"유달산 봄길 힐링걷기, 4.8만세운동 재현 퍼포먼스 , 문화예술공연 및 시민 체험 프로그램",전라남도 목포시,목포시축제추진위원회,,061-270-8432,http://www.mokpo.go.kr/tour/festival/yudalsan_spring/info,,,전라남도 목포시 죽교동 산27-3,,,2022-01-19,4800000,전라남도 목포시
필봉마을굿축제,필봉문화촌,2022-08-12,2022-08-15,"국가무형문화재 초청공연, 전국농악경연대회, 국제교류 문화공연 등",임실필봉농악보존회,임실필봉농악보존회,"문화체육관광부, 임실군",063-640-2901,www.pilbong.co.kr,N,전라북도 임실군 강진면 강운로 272,전라북도 임실군 강진면 필봉리 88-1,35.53639442,127.1544452,2022-01-19,4760000,전라북도 임실군
임실N치즈축제,"임실치즈테마파크, 임실치즈마을",2022-10-07,2022-10-10,"국가대표 왕치즈피자 만들기, 우유드림 행복드림 퍼레이드, 임실N치즈페어, 치즈경매 등",임실N치즈축제 제전위원회,임실군,"문화체육관광부, 농림축산식품부, 전라북도 등",063-643-3900,www.imsilfestival.com,N,전라북도 임실군 성수면 도인2길 50,전라북도 임실군 성수면 도인리 689,35.63310329,127.3012599,2022-01-19,4760000,전라북도 임실군
산타축제,임실치즈테마파크,2022-12-23,2022-12-25,"산타플래시몹 퍼레이드, 산타를 찾아라, 산타경연대회 등",(재)임실치즈테마파크,(재)임실치즈테마파크,임실군,063-643-2300,www.cheesepark.kr,N,전라북도 임실군 성수면 도인2길 50,전라북도 임실군 성수면 도인리 689,35.63310329,127.3012599,2022-01-19,4760000,전라북도 임실군
향촌동수제화골목 2016년「빨간구두 이야기」,향촌동수제화골목 일원,2016-05-14,2016-05-15,"무대행사, 체험행사, 부대행사 등",대구광역시 수제화협회,대구광역시 수제화협회,대구광역시 중구,053-661-2046,,,대구광역시 중구 서성로14길 78,대구광역시 중구 대안동 9-2,35.8728473,128.591844,2021-08-20,3410000,대구광역시 중구
봉산조형페스티벌 도예조각전,봉산문화거리,2017-04-25,2017-05-01,도예전시 및 부대행사,봉산문화협회,봉산문화협회,대구광역시 중구,053-661-2174,,,대구광역시 중구 봉산문화길 77,대구광역시 중구 봉산동 131-1,35.86339725,128.5965647,2021-08-20,3410000,대구광역시 중구
2017 대구약령시한방문화축제,약령시(약전골목) 일원,2017-05-03,2017-05-07,"경연, 참여, 체험, 전시, 공연, 먹거리 등",(사)약령시보존위원회,대구광역시+대구광역시 중구,문화체육관광부+한국관광공사+대구시 한약협회+대구시 한의사회+한약도매협회 대구시지회+(주)대구시한약재도매시장,053-661-2044,,,대구광역시 중구 남성로 61 (동성로3가),대구광역시 중구 동성로3가 57,35.86728562,128.5933466,2021-08-20,3410000,대구광역시 중구
천안성환배축제,성환문화회관,2021-12-31,2021-12-31,코로나19 상황 종료시까지 지역축제 잠정 중단,성환청년회의소,성환청년회의소,,041-581-1771,,,충청남도 천안시 서북구 성환읍 성진로 15,,36.91253596,127.1366796,2021-10-15,4490000,충청남도 천안시
천안호두축제,광덕쉼터,2021-10-09,2021-10-10,천안호두 드라이브스루 판매 및 홍보영상제작,천안시호두축제추진위원회,천안시호두축제추진위원회,,041-521-4701,,,충청남도 천안시 동남구 광덕면 광덕리 403,,,,2021-10-15,4490000,충청남도 천안시
천안북면위례벚꽃축제,북면은석초등학교운동장,2021-12-31,2021-12-31,2021년 축제취소,북면위례벚꽃축제추진위원회,북면위례벚꽃축제추진위원회,,041-521-4721,,,충청남도 천안시 동남구 북면 용암3길 10,,36.78825701,127.2576353,2021-10-15,4490000,충청남도 천안시
부산자갈치축제,자갈치시장 및 유라리광장 일원,2020-10-08,2020-10-11,"개막식, 길놀이, 체험프로그램등",(사)부산자갈치문화관광축제위원회,(사)부산자갈치문화관광축제위원회,"부산광역시, 부산광역시 중구, 부산시설관리공단",051-243-9363,http://www.ejagalchi.com/,,부산광역시 중구 자갈치해안로 52,부산광역시 중구 남포동4가 37-1,35.0966394,129.0305933,2022-01-27,3250000,부산광역시 중구
부산크리스마스트리문화축제,광복로 및 중구 관내 일원,2020-11-28,2021-01-03,일루미네이션 크리스마스트리장식/성탄음악행사/시민참여행사/점등식 등,(사) 부산기독교총연합회,(사) 부산기독교총연합회,"부산광역시, 부산광역시중구등",051-464-0112,https://bctf.co.kr,,부산광역시 중구 광복중앙로 2,부산광역시 중구 광복동2가 6-5,35.0995432,129.0314651,2022-01-27,3250000,부산광역시 중구
희망달서 큰잔치,달서아트센터,2022-10-14,2022-10-16,"희망가득체험부스, 다문화 어울림제, 축하 콘서트 등",(재)달서문화재단+대구전업미술가협회+대구사회복지공동모금회,(재)달서문화재단,대구광역시 달서구+달서구의회,053-584-9711,http://www.dscf.or.kr,,대구광역시 달서구 문화회관길 160(장기동),대구광역시 달서구 장기동 722-1,35.84342427,128.5228246,2022-01-11,3470000,대구광역시 달서구
시(詩)를 노래하는 달빛 콘서트,월광수변공원,2022-09-09,2022-09-11,시(詩)낭송과 함께 시를 노래하는 달빛콘서트,(재)달서문화재단+대구전업미술가협회+대구사회복지공동모금회,(재)달서문화재단,대구광역시 달서구+달서구의회,053-584-9712,http://www.dscf.or.kr,,대구광역시 달서구 월곡로 5,대구광역시 달서구 도원동 898-1,35.7988027,128.5482878,2022-01-11,3470000,대구광역시 달서구
선사문화체험축제,한샘청동공원,2022-10-07,2022-10-08,선사테마축제 및 체험프로그램 운영 등,달서구문화원,달서구문화원,대구광역시 달서구+달서구의회,053-667-2194,http://artko16.netto.kr/,,대구광역시 달서구 조암남로 116,대구광역시 달서구 대천동 353-5,35.8193073,128.5211095,2022-01-11,3470000,대구광역시 달서구
전주대사습놀이,국립무형유산원 및 전주한옥마을 일원,2022-05-14,2022-05-30,"국악경연, 전야제",전주대사습놀이조직위원회,전라북도 전주시,문화관광체육부+전라북도+전라북도교육청+㈜문화방송+전주MBC,063-288-0771,http://www.jjdss.or.kr,"한지산업지원센터, 한옥마을, 객사, 덕진공원",전라북도 전주시 덕진구 권삼득로 400,전라북도 전주시 덕진구 덕진동2가 184-1,35.84915665,127.1196082,2022-01-07,4640000,전라북도 전주시
제23회 전주국제영화제,고사동영화의거리 일대,2022-04-28,2022-05-07,우수한 국내외 영화를 소개하는 영화축제의 장,전주국제영화제조직위원회,전주국제영화제조직위원회,문화체육관광부+전라북도+전라북도 전주시(청)+영화진흥위원회,063-280-7914,https://www.jeonjufest.kr/,"한지산업지원센터, 한옥마을, 객사, 덕진공원",전라북도 전주시 완산구 전주객사4길 74-12,전라북도 전주시 완산구 고사동 181,35.8208219,127.1437421,2022-01-07,4640000,전라북도 전주시
온천1동 온(ON)마음축제,온천1동 행정복지센터,2021-11-05,2021-11-14,"비대면 온택트, 사진전시회, 요리대회, 오징어게임",온천1동한마당축제추진위원회,온천1동한마당축제추진위원회,,042-611-6680,,온천1동 행정복지센터,대전광역시 유성구 도안대로589번길 35,대전광역시 유성구 봉명동 451,36.35311915,127.3389734,2022-01-18,3670000,대전광역시 유성구
온이사랑 마을축제,유림공원,2021-10-21,2021-10-23,"온이사랑 영화제, 장터 국악한마당, 군량들 클래식 산책",온천2동한마당축제추진위원회,온천2동한마당축제추진위원회,,042-611-6710,,유림공원,대전광역시 유성구 어은로 27,대전광역시 유성구 봉명동 496-39,36.3606845,127.3576882,2022-01-18,3670000,대전광역시 유성구
반석천에 울리는 희망스위치 ON,안샘수변공원,2021-10-02,2021-10-30,"지역예술동아리 등이 참여하는 소규모 문화공연, 플리마켓, 관내 어린이집 그림 전시",노은3동 한마음축제추진위원회,노은3동 한마음축제추진위원회,,042-601-6944,,안샘수변공원,대전광역시 유성구 지족북로 49-4,대전광역시 유성구 지족동 1109,36.38955056,127.3045343,2022-01-18,3670000,대전광역시 유성구
신성동 온 마을축제,신성동 일원 및 마을명소,2021-10-01,2021-10-31,"골목상권 살리기, 자동차 영화제, 체험마당, 우리마을 알기, 따신 이벤트",신성동마을축제추진위원회,신성동마을축제추진위원회,,042-601-6788,,신성동 일원 및 마을명소,대전광역시 유성구 신성로 55,대전광역시 유성구 하기동 18-6,36.38922402,127.3473742,2022-01-18,3670000,대전광역시 유성구
전민동 엑스포공원 등축제,엑스포근린공원,2021-11-01,2021-12-31,공원 내 행잉을 통한 모빌 조명 설치,전민동마을축제추진위원회,전민동마을축제추진위원회,,042-601-6803,,엑스포근린공원,대전광역시 유성구 계룡로123번길 52,대전광역시 유성구 봉명동 574,36.35523616,127.3452875,2022-01-18,3670000,대전광역시 유성구
제15회 구즉한마당축제,송강근린공원,2021-10-23,2021-10-23,"별밤가족시네마, 소규모 문화공연, 국화 루미나리에",구즉한마당축제추진위원회,구즉한마당축제추진위원회,,042-601-6835,,송강근린공원,대전광역시 유성구 송강로42번길 34(송강동),대전광역시 유성구 송강동 9,36.43501232,127.3840991,2022-01-18,3670000,대전광역시 유성구
2017 안양충훈벚꽃축제,안양충훈2교일대,2017-04-07,2017-04-09,"축하공연, 안양꽃길걷기대회, 안양꽃길그리기, 어린이벼룩시장, 거리공연, 체험부스 등",(재)안양문화예술재단,안양시+안양충훈벚꽃축제추진위원회,티브로드abc방송,031-687-0500,http://www.ayac.or.kr,"안양예술공원, APAP, 김중업박물관",경기도 안양시 만안구 석수로 159,경기도 안양시 만안구 석수동 797,37.40461526,126.8961574,2022-02-09,3830000,경기도 안양시
악양대봉감축제,하동군 악양면 평사리 일원,2020-01-01,2020-12-31,대봉감축제,악양면청년회,악양면청년회,,,,,경상남도 하동군 악양면 섬진강대로 3145-2,,35.1359293463,127.6914855048,2020-03-10,5440000,경상남도 하동군
2020 명량대첩축제,해남·진도울돌목 일원,2020-09-11,2020-09-13,해전재현+출정식+평화의 민가행진+호국기원퍼포먼스+학술심포지엄 등,(재)명량대첩기념사업회,전라남도+해남군+진도군,문화체육관광부+보건복지부+대한민국해군+한국관광공사+한국지역진흥재단,061-286-5262,http://www.mldc.kr/web/,,전라남도 진도군 군내면 진도대로 8459-13 (녹진리 1)+전라남도 해남군 문내면 관광레저로 12 (학동리 산 36),,34.5707173017,126.3009784397,2020-09-02,6460000,전라남도
제26회 남도음식문화큰잔치,강진만 생태공원,2019-10-11,2019-10-13,상달행렬+천인오찬+달빛야시장+전시판매+경연대회 등,(재)남도음식문화큰잔치,전라남도+강진군,문화체육관광부+농림축산식품부+식품의약품안전처+한국관광공사+한국지역진흥재단,061-286-5771,http://www.namdofood.or.kr/,,전라남도 무안군 삼향읍 오룡길 1,,34.8174871265,126.4653809760,2020-09-02,6460000,전라남도
증평인삼골축제,증평보강천체육공원,2021-10-01,2021-10-31,"○ 핵심프로그램(인삼캐기체험, 홍삼포크삼겹살대잔치) ○ 인삼, 홍삼포크를 테마로 한 공연, 전시, 체험프로그램 운영 ○ 개막 공연 및 문화공연(열린콘서트, 인삼골합창제, 인삼골군악콘서트) ○ 경연행사(국제청소년페스티벌, 인삼장사씨름대회, 인삼골가요제, 증평인삼어린이사생대회, 백곡김득신백일장) ○ 기타 전시·체험행사, 참여행사 등",증평문화원,증평인삼골축제추진위원회,증평군,043-835-3977,https://www.jp.go.kr/tour/prog/tursmCn/sub03_01/view.do?progNo=p00000006356hw4uR8as,,,충청북도 증평군 증평읍 송산리 217,36.7860877,127.5746179,2021-05-31,5570000,충청북도 증평군
동성로축제,동성로,2021-10-01,2021-10-03,"동성로 가요제, 댄스, 먹방대회, 패션쇼 등",동성로상점가상인회,사단법인달성문화선양회,,053-423-3337,http://www.jung.daegu.kr/,,대구광역시 중구 국채보상로139길 1(동인동2가),,35.86932522,128.6061572,2021-08-10,6270000,대구광역시
대구패션주얼리위크,교동,2021-09-01,2021-10-31,"주얼리패션쇼, 주얼리 경매, 주얼리 모델대회 등",대구패션주얼리특구상인회,대구패션주얼리특구상인회,,053-424-9150,http://www.jung.daegu.kr/,개최일자 미정,대구광역시 중구 국채보상로139길 1(동인동2가),,35.86932522,128.6061572,2021-08-10,6270000,대구광역시
대구스트리트모터페스티벌,남산동 자동차골목,2021-09-01,2021-12-31,"차량 전시, 축하공연, 부대행사 등",남산동DSMF조직위원회,남산동자동차골목상점가상인회,,053-661-3014,http://www.jung.daegu.kr/,개최일자 미정,대구광역시 중구 국채보상로139길 1(동인동2가),,35.86932522,128.6061572,2021-08-10,6270000,대구광역시
대구문화재야행,대구근대골목,2021-08-20,2021-08-21,"근대 관련 문화공연, 전시, 체험, 청사초롱 야경투어 및 테마투어 등",대구광역시 중구 관광진흥과,대구광역시 중구 관광진흥과,,053-661-2195,http://www.jung.daegu.kr/,,대구광역시 중구 국채보상로139길 1(동인동2가),,35.86932522,128.6061572,2021-08-10,6270000,대구광역시
김광석 나의노래 다시부르기,"김광석길, 신천둔치",2021-09-11,2021-10-02,"김광석 노래경연, 김광석 추모사진 전시 등",주식회사 대구문화방송,대구광역시 중구 문화교육과,,053-661-2174,http://www.jung.daegu.kr/,개최일자 미정,대구광역시 중구 국채보상로139길 1(동인동2가),,35.86932522,128.6061572,2021-08-10,6270000,대구광역시
김광석길 페스티벌,김광석길,2021-10-01,2021-10-31,"김광석길 문화예술 공연, 버스킹, 전시 등",방천문화예술협회,방천문화예술협회,,053-661-2174,http://www.jung.daegu.kr/,개최일자 미정,대구광역시 중구 국채보상로139길 1(동인동2가),,35.86932522,128.6061572,2021-08-10,6270000,대구광역시
서문시장글로벌대축제,서문시장,2021-10-01,2021-10-31,"보부상퍼레이드, 상인가요제, 서문가요제",서문시장상가연합회,대구광역시 중구 일자리경제과,,053-256-6341,http://www.jung.daegu.kr/,개최일자 미정,대구광역시 중구 국채보상로139길 1(동인동2가),,35.86932522,128.6061572,2021-08-10,6270000,대구광역시
2016 대구약령시한방문화축제,약령시(약전골목) 일원,2016-05-04,2016-05-08,"경연, 참여, 체험, 전시, 공연, 먹거리 등",(사)약령시보존위원회,대구광역시+대구광역시 중구,문화체육관광부+한국관광공사+대구시 한약협회+대구시 한의사회+한약도매협회 대구시지회+(주)대구시한약재도매시장,053-661-2044,,,대구광역시 중구 남성로 61 (동성로3가),대구광역시 중구 동성로3가 35-13,35.86728562,128.5933466,2021-08-20,3410000,대구광역시 중구
고성군민의 날 및 수성문화제,고성종합운동장외 부대시설,2021-09-15,2021-09-16,"수성제례, 군민의 날 행사 등",고성문화원,고성군수성문화제위원회,"고성군, 고성군의회, 고성경찰서, 강원도고성교육지원청, 고성소방서, 22사단 및 예하 부대, 관내 기관, 단체, 학교",,,코로나19로 축소 추진,강원도 고성군 간성읍 수성로 87,강원도 고성군 간성읍 상리 500번지 외,38.37632274,128.4650421,2021-10-15,4340000,강원도 고성군
제13회 마포나루 새우젓축제,서울월드컵공원 평화의 광장 일원,2020-10-16,2020-10-18,"개장식, 기념식, 문화행사, 체험행사, 판매행사",마포문화원,서울특별시 마포구,,02-3153-8353,http://www.mapo.go.kr/site/maponarusf/home,,서울특별시 마포구 월드컵로 243-60(성산동),서울특별시 마포구 성산동 390-1,37.5635262478,126.8984363299,2020-05-26,3130000,서울특별시 마포구
대구글로벌게임문화축제 e-fun,동성로,2021-10-01,2021-10-31,"게임영상콘서트, e스포츠대회, 코스프레대회, 게임체험존 운영",재단법인대구디지털산업진흥원,대구광역시 문화콘텐츠과,,053-803-3801,http://www.daegu.go.kr/,개최일자 미정,대구광역시 중구 공평로 88(동인동1가),,35.87155388,128.6012201,2021-08-10,6270000,대구광역시
생명사랑환경축제-맹꽁이야 놀자,달성습지,2021-09-01,2021-10-31,"생태교육 및 참여 프로그램 운영, 달성습지 홍보 등",사단법인대구경북늘푸른자원봉사단,대구광역시 환경정책과,,053-803-4215,http://www.daegu.go.kr/,개최일자 미정,대구광역시 중구 공평로 88(동인동1가),,35.87155388,128.6012201,2021-08-10,6270000,대구광역시
대구국제재즈축제,공원,2021-10-01,2021-10-31,"재즈뮤지션 초청공연, 프린지 공연, 대구국제실용음악콩쿠르 개최",대구국제재즈축제조직위원회,대구광역시 문화예술정책과,,1544-1850,http://www.daegu.go.kr/,개최일자 미정,대구광역시 중구 공평로 88(동인동1가),,35.87155388,128.6012201,2021-08-10,6270000,대구광역시
팔공산 산중장터 승시,동화사,2021-10-01,2021-10-31,"산중장터 승시 재현, 승시음악회, 불교용품 전시, 체험관 운영 등",팔공산승시축제봉행위원회,팔공총림동화사,,053-980-7956,http://www.daegu.go.kr/,개최일자 미정,대구광역시 중구 공평로 88(동인동1가),,35.87155388,128.6012201,2021-08-10,6270000,대구광역시
대구생활문화제,동성로,2021-10-01,2021-10-31,"예술동호회 공연 및 전시, 체험존 운영",대구문화재단,대구광역시 문화예술정책과,,053-803-3631,http://www.daegu.go.kr/,개최일자 미정,대구광역시 중구 공평로 88(동인동1가),,35.87155388,128.6012201,2021-08-10,6270000,대구광역시
대봉웨딩거리축제,대봉웨딩거리,2021-09-01,2021-12-31,"웨딩 관련 상품체험, 길거리 공연 등",미정,미정,미정,053-661-2645,http://www.jung.daegu.kr/,개최일자·주최 등 미정,대구광역시 중구 국채보상로139길 1(동인동2가),,35.86932522,128.6061572,2021-08-10,6270000,대구광역시
약령개장 357주년 2015「대구약령시 한방문화축제」,약령시(약전골목) 일원,2015-04-15,2015-04-19,"경연, 참여, 체험, 전시, 공연, 먹거리 등",(사)약령시보존위원회,대구광역시+대구광역시 중구,문화체육관광부+한국관광공사+대구시 한약협회+대구시 한의사회+한약도매협회 대구시지회+(주)대구시한약재도매시장,053-661-2044,,,대구광역시 중구 남성로 61 (동성로3가),대구광역시 중구 동성로3가 35-13,35.86728562,128.5933466,2021-08-20,3410000,대구광역시 중구
향촌동수제화골목 2015년「빨간구두 이야기」,향촌동수제화골목 일원,2015-05-02,2015-05-03,"무대행사, 체험행사, 부대행사 등",대구광역시 수제화협회,대구광역시 수제화협회,대구광역시 중구,053-661-2046,,,대구광역시 중구 서성로14길 78,대구광역시 중구 대안동 14-1,35.8728473,128.591844,2021-08-20,3410000,대구광역시 중구
봉황각 3.1독립운동 재현행사,서울특별시 강북구 우이동 봉황각 일원,2020-03-01,2020-03-01,도선사 타종,서울특별시 강북구청,서울특별시 강북구청,천도교 중앙총부,02-901-6207,www.gangbuk.go.kr,,서울특별시 강북구 삼양로173길 107-12,서울특별시 강북구 우이동 254,37.66019851,127.0060603,2022-01-07,3080000,서울특별시 강북구
4.19혁명 국민문화제 2020,서울특별시 강북구 국립4.19 민주묘지 및 강북구 일원,2020-09-26,2020-09-27,4.19기념 국민문화제,4.19혁명 국민문화제위원회,4.19 3개단체+서울특별시 강북구청,국가보훈처 서울특별시  서울특별시 교육청  KBS,02-901-6206,www.festival419.org,,서울특별시 강북구 도봉로89길 13,서울특별시 강북구 수유동 192-59,37.63918553,127.0254518,2022-01-07,3080000,서울특별시 강북구
종교연합바자회,서울특별시 강북구 한신대신학대학원,2019-10-12,2019-10-12,종교연합 바자회 기증물품 판매  문화공연  수익금전액 난치병어린이돕기 후원,서울특별시 강북구 관내 3종교연합,서울특별시 강북구 관내 3종교연합,강북구  티브로드  한신대학교 신학대학원,02-901-6208,www.gangbuk.go.kr,,서울특별시 강북구 인수봉로 159,서울특별시 강북구 수유동 498-16,37.6350142,127.0129382,2022-01-07,3080000,서울특별시 강북구
단기4355년 개천절 대제전,사직동 단군성전,2022-10-03,2022-10-03,국조 단군의 개국을 기념하는 전통제례 봉행 및 부대행사,(사)현정회,(사)현정회,"문화체육관광부, 서울특별시, 종로구",02-736-6375,http://blog.naver.com/lgb301,,서울특별시 종로구 인왕산로 22,서울특별시 종로구 사직동 1-28,37.5758942,126.9658032,2022-01-11,3000000,서울특별시 종로구
단기4355년 어천절 대제전,사직동 단군성전,2022-03-15,2022-03-15,국조 단군의 승천을 기념하는 전통제례 봉행 및 부대행사,(사)현정회,(사)현정회,"문화체육관광부, 서울특별시, 종로구",02-736-6375,http://blog.naver.com/lgb301,,서울특별시 종로구 인왕산로 22,서울특별시 종로구 사직동 1-28,37.5758942,126.9658032,2022-01-11,3000000,서울특별시 종로구
2022 종로한복축제,종로구 일대,2022-10-08,2022-10-09,한복을 중심으로 한 전통행사,(재)종로문화재단,서울특별시 종로구,"서울특별시, 문화체육관광부, 한국관광공사",02-2148-1803,https://jongnohanbok.kr/site/main/home,,"서울특별시 종로구 새문안로3길 3, 6층",서울특별시 종로구 신문로1가 58-15,37.570671,126.972381,2022-01-11,3000000,서울특별시 종로구
"2021년 과천축제 특별기획프로그램 안녕, 과천",과천시 일원,2020-09-24,2020-09-27,비대면 기획공연 및 사진·그림 전시회,(재)과천축제,과천시,,02-2009-9732,http://www.gcfest.or.kr,,경기도 과천시 통영로 5 (과천시민회관 2층),경기도 과천시 중앙동 6-2,37.42819137,126.9891538,2022-01-10,3970000,경기도 과천시
금당산 신년맞이행사,광주광역시 남구 진월동 금당산 정상,2021-01-01,2021-01-01,신년맞이행사,광주광역시 남구,광주광역시 남구,,062-651-9020,http://www.namgu.gwangju.kr/menu.es?mid=a70301000000cnt1,,광주광역시 남구 회재로1140-23,광주광역시 남구 주월동 543-8,35.12825676,126.888223,2022-01-01,6290000,광주광역시
대구약령시한방문화축제,약령시장,2021-10-06,2021-10-10,"고유제, 개막식, 체험프로그램 등",사단법인약령시보존위원회,"대구광역시 의료산업기반과, 대구광역시 중구 관광진흥과",,053-253-4729,http://www.daegu.go.kr/,,대구광역시 중구 공평로 88(동인동1가),,35.87155388,128.6012201,2021-08-10,6270000,대구광역시
대구컬러풀페스티벌,국채보상로,2021-10-22,2021-10-24,"퍼레이드, 축하공연, 부대행사 등",재단법인대구문화재단,대구광역시 문화콘텐츠과,,053-430-1261,http://www.daegu.go.kr/,,대구광역시 중구 공평로 88(동인동1가),,35.87155388,128.6012201,2021-08-10,6270000,대구광역시
대구국제뮤지컬페스티벌,공연장,2021-06-18,2021-07-05,"국내외 우수작품 공연, 딤프어워즈, 딤프린지 등",사단법인DIMF,대구광역시 문화콘텐츠과,,053-622-1945,http://www.daegu.go.kr/,,대구광역시 중구 공평로 88(동인동1가),,35.87155388,128.6012201,2021-08-10,6270000,대구광역시
대구치맥페스티벌,두류공원,2021-10-01,2021-11-30,"치맥 테마 식음, 체험, 공연, 참여프로그램 운영 등",대구치맥페스티벌 조직위원회,사단법인한국치맥산업협회,,053-248-9998,http://www.daegu.go.kr/,개최일자 미정,대구광역시 중구 공평로 88(동인동1가),,35.87155388,128.6012201,2021-08-10,6270000,대구광역시
디지털패션문화페스티벌,공원,2021-09-01,2021-09-30,"디지털 패션쇼, 패션아트 전시 및 공연, 이커머스 라이브 마켓 등",한국패션산업연구원,대구광역시 섬유패션과,,053-721-7434,http://www.daegu.go.kr/,개최일자 미정,대구광역시 중구 공평로 88(동인동1가),,35.87155388,128.6012201,2021-08-10,6270000,대구광역시
대구포크페스티벌,공원,2021-10-01,2021-10-31,"포크송 및 버스킹 공연, 언택트 공연 100인 랜선 합창 등",사단법인대구포크페스티벌,대구광역시 문화예술정책과,,053-626-2015,http://www.daegu.go.kr/,개최일자 미정,대구광역시 중구 공평로 88(동인동1가),,35.87155388,128.6012201,2021-08-10,6270000,대구광역시
대구국제오페라축제,공연장,2021-09-09,2021-11-07,"초청 오페라 공연, 국제오페라오디션 등",재단법인대구오페라하우스,대구광역시 문화콘텐츠과,,053-803-3792,http://www.daegu.go.kr/,,대구광역시 중구 공평로 88(동인동1가),,35.87155388,128.6012201,2021-08-10,6270000,대구광역시
홍원항 자연산 전어.꽃게 축제,서면 홍원항 일원,2020-09-19,2020-10-04,"맨손으로 전어 잡기 체험, 추억의 놀이 체험, 숨겨진 보물을 찾아라, 비눗방울 놀이 등",홍원항마을축제추진위원회,홍원항마을축제추진위원회,없음,041-950-4016,http://tour.seocheon.go.kr,"축제 일정, 프로그램",충청남도 서천군 서면 홍원길 130-3,충청남도 서천군 서면 도둔리 1222-7,36.1588618,126.4992204,2021-11-01,4580000,충청남도 서천군
한산모시문화제,한산모시관 일원,2020-06-12,2020-06-14,한산모시를 주제로 하는 다양한 프로그램 운영,한산모시문화제추진위원회,서천군,"문화체육관광부, 충청남도, 농협 등",041-950-4256,www.hansanmosi.kr/,"축제 일정, 프로그램",충청남도 서천군 한산면 충절로 1089,충청남도 서천군 한산면 지현리 60-1,36.0799445,126.7987047,2021-11-01,4580000,충청남도 서천군
서천철새여행,조류생태전시관 일원,2020-11-22,2020-11-24,철새 탐조 및 철새 관련 문화행사,서천철새여행추진위원회,서천군,없음,041-950-4256,http://tour.seocheon.go.kr,"축제 일정, 프로그램",충청남도 서천군 마서면 장산로 916,충청남도 서천군 마서면 도삼리 59,36.02280046,126.7426918,2021-11-01,4580000,충청남도 서천군
2019 계룡산산신제,계룡면 양화리 신원사일원,2019-04-20,2019-04-21,"유.불.무가식 산신제,점사체험, 다양한 무대공연 등",계룡산산신제보존회,공주시,,041-840-2056,,,충청남도 공주시 계룡면 보목고개로 393,충청남도 공주시 계룡면 양화리 165-1,36.333638,127.177107,2021-10-22,4500000,충청남도 공주시
제16회 마곡사신록축제,사곡면 운암리 마곡사일원,2019-04-27,2019-04-28,"버스킹공연, 꽃화분, 야생화 전시, 보물찾기, 농특산물 판매 등",마곡사신록축제추진위원회,공주시,,041-840-2056,,,충청남도 공주시 사곡면 마곡사로 966 마곡사,충청남도 공주시 사곡면 운암리 567,36.55740589,127.011603,2021-10-22,4500000,충청남도 공주시
2019 계룡산벚꽃축제,계룡산 동학사 일원,2019-04-05,2019-04-14,"야간경관 설치, 계룡산벚꽃가요제, 분청사기 만들기, 먹거리 운영 등",계룡산축제추진위원회,공주시,,041-840-2056,,,충청남도 공주시 반포면 동학사1로 167-31,충청남도 공주시 반포면 학봉리 631-9,36.36030634,127.2509274,2021-10-22,4500000,충청남도 공주시
갑사황매화 축제,갑사일원,2019-04-26,2019-04-28,"문화공연, 체험, 갑사 과거사 사진전시회 등",갑사번영회,공주시,,041-840-8093,,,충청남도 공주시 계룡면 갑사로 567-3,충청남도 공주시 계룡면 갑사로 567-3,36.36607692,127.1864443,2021-10-22,4500000,충청남도 공주시
공주항공축제,공주경비행기장(정안천 일원),2019-05-04,2019-05-06,"경량항공기 활주로 주행체험, 포토존, 물로켓 만들기등",공주경비행기,공주시,,041-840-8093,,,충청남도 공주시 의당면 수촌리 943,충청남도 공주시 의당면 수촌리 943,36.5103003287,127.1259096504,2021-10-22,4500000,충청남도 공주시
「제36회 대구약령시 한방문화축제」,약령시(약전골목) 일원,2013-05-08,2013-05-12,"경연, 참여, 체험, 전시, 공연, 먹거리 등",(사)약령시보존위원회,대구광역시+대구광역시 중구,문화체육관광부+한국관광공사+대구시 한약협회+대구시 한의사회+한약도매협회 대구시지회+(주)대구시한약재도매시장,053-661-2044,,,대구광역시 중구 남성로 61 (동성로3가),대구광역시 중구 동성로3가 35-13,35.86728562,128.5933466,2021-08-20,3410000,대구광역시 중구
「제37회 대구약령시 한방문화축제」,약령시(약전골목) 일원,2014-10-01,2014-10-05,"경연, 참여, 체험, 전시, 공연, 먹거리 등",(사)약령시보존위원회,대구광역시+대구광역시 중구,문화체육관광부+한국관광공사+대구시 한약협회+대구시 한의사회+한약도매협회 대구시지회+(주)대구시한약재도매시장,053-661-2044,,,대구광역시 중구 남성로 61 (동성로3가),대구광역시 중구 동성로3가 35-13,35.86728562,128.5933466,2021-08-20,3410000,대구광역시 중구
향촌동수제화골목 2014년「빨간구두 이야기」,향촌동수제화골목 일원,2014-11-15,2014-11-16,"무대행사, 체험행사, 부대행사 등",대구광역시 수제화협회,대구광역시 수제화협회,대구광역시 중구,053-661-2046,,,대구광역시 중구 서성로14길 78,대구광역시 중구 대안동 9-2,35.8728473,128.591844,2021-08-20,3410000,대구광역시 중구
춘장대해수욕장 여름문화예술축제,춘장대해수욕장 중앙광장,2020-07-31,2020-08-01,"한여름밤의 트롯이야기, 춘장대 시네마, 춘장대 푸파 페스티벌 등",춘장대해수욕장 운영협의회,서천군,없음,041-950-4016,http://tour.seocheon.go.kr,"축제 일정, 프로그램",충청남도 서천군 서면 춘장대길 20,충청남도 서천군 서면 도둔리 1319,36.16334922,126.5243355,2021-11-01,4580000,충청남도 서천군
자연산 광어.도미 축제,서면 마량포구 일원,2020-05-16,2020-05-31,"맨손으로 광어잡기 체험, 기념공원에서 보물찾기",서면개발위원회,서면개발위원회,없음,041-950-4016,http://tour.seocheon.go.kr,"축제 일정, 프로그램",충청남도 서천군 서면 서인로 56,충청남도 서천군 서면 마량리 339-6,36.1293642,126.5036472,2021-11-01,4580000,충청남도 서천군
마량포 해넘이.해돋이 축제,서면 마량포구 일원,2020-12-31,2021-01-01,"새해 떡국나눔행사, 불꽃놀이, 버스킹 공연, 소원등 달기",서면개발위원회,서천군,없음,041-950-4016,http://tour.seocheon.go.kr,"축제 일정, 프로그램",충청남도 서천군 서면 서인로 56,충청남도 서천군 서면 마량리 339-6,36.1293642,126.5036472,2021-11-01,4580000,충청남도 서천군
광주 칠석 고싸움놀이,광주광역시 남구 칠석동 고싸움 놀이테마파크,2022-02-15,2022-02-15,고싸움놀이,광주 칠석 고싸움 놀이 보존회,광주 칠석 고싸움 놀이 보존회,,062-374-3839,http://www.gossaum.com,,광주광역시 남구 칠석길28,광주광역시 남구 칠석동127-1,35.07041066,126.8384016,2022-01-01,6290000,광주광역시
장 담그는날 행사,광주광역시 남구 콩 종합센터,2022-01-29,2022-02-27,장담그기,압촌 메주 영농 조합,저절로 소비자 생활협동조합,,062-385-0455,http://www.namgu.gwangju.kr/menu.es?mid=a70303000000,,광주광역시 남구 압촌길78,광주광역시 남구 압촌동101-1,35.09241574,126.8386216,2022-01-01,6290000,광주광역시
굿모닝양림,광주광역시 남구 양림동66번지,2020-11-07,2020-11-28,"전시, 공연, 체험행사","남구 문화원, 굿모닝 양림행사추진위원회",광주광역시 남구,"문화체육관광부,광주광역시,광주디자인진흥원",062-671-7356,http://www.goodmorningyangrim.com,,광주광역시 남구 백서로86,광주광역시 남구 양림동66,35.140085,126.9157016,2022-01-01,6290000,광주광역시
용아생가 어린이축제,광주광역시 광산구 용아생가,2021-05-29,2021-05-29,용아 박용철의 문학과 생애를 소재로 한 놀이와 체험 프로그램 제공,놀이요점빵,문화재청,광주광역시,,https://www.gwangsan.go.kr/bb/bbBoard.php?action=view&pageID=gwangsan0201020000&boardID=NEWS_NEW&SEQ=685637744,,광주광역시 광산구 소촌로 46번길24,,35.149407,126.7951682,2022-01-01,6290000,광주광역시
영산강문화제,광주광역시 서구 서창동 영산강 둔지,2021-10-07,2021-10-10,영산강 문화의 대중적 이해와 확산,광주광역시 남구,광주광역시 남구,,062-362-7670,http://www.cafe.naver.com/yeongsangang,,광주광역시 남구 승촌보길90,광주광역시 남구 승촌동573,35.06581966,126.761073,2022-01-01,6290000,광주광역시
광주 프린지 페스티벌 동구,광주광역시 동구 푸른길공원(지역이동하여 개최),2021-07-17,2021-07-17,"예술작품, 체험, 플리마켓, 야외공연",광주문화재단,광주광역시,,062-670-7983,http://www.fringefestival.kr,,광주광역시 동구 독립로 380,광주광역시 동구 계림동 730,35.16426707,126.9160455,2022-01-01,6290000,광주광역시
광주 프린지 페스티벌 남구 유안근린공원,광주광역시 남구 유안근린공원,2021-08-28,2021-08-28,"예술작품, 체험, 플리마켓, 야외공연",광주문화재단,광주광역시,,062-670-7983,http://www.fringefestival.kr,,광주광역시 남구 봉선로 195,광주광역시 남구 봉선동134,35.12316806,126.9166047,2022-01-01,6290000,광주광역시
봉산미술제,봉산문화거리,2013-10-15,2013-10-21,화랑기획전 및 부대행사,봉산문화협회,봉산문화협회,대구광역시+대구광역시 중구,053-661-2174,,,대구광역시 중구 봉산문화길 77,대구광역시 중구 봉산동 125,35.86339725,128.5965647,2021-08-20,3410000,대구광역시 중구
봉산미술제,봉산문화거리,2014-10-14,2014-10-20,화랑기획전 및 부대행사,봉산문화협회,봉산문화협회,대구광역시+대구광역시 중구,053-661-2174,,,대구광역시 중구 봉산문화길 77,대구광역시 중구 봉산동 125,35.86339725,128.5965647,2021-08-20,3410000,대구광역시 중구
봉산미술제,봉산문화거리,2015-10-20,2015-10-26,화랑기획전 및 부대행사,봉산문화협회,봉산문화협회,대구광역시+대구광역시 중구,053-661-2174,,,대구광역시 중구 봉산문화길 77,대구광역시 중구 봉산동 125,35.86339725,128.5965647,2021-08-20,3410000,대구광역시 중구
봉산미술제,봉산문화거리,2016-10-20,2016-10-26,화랑기획전 및 부대행사,봉산문화협회,봉산문화협회,대구광역시+대구광역시 중구,053-661-2174,,,대구광역시 중구 봉산문화길 77,대구광역시 중구 봉산동 125,35.86339725,128.5965647,2021-08-20,3410000,대구광역시 중구
봉산미술제,봉산문화거리,2017-10-18,2017-10-24,화랑기획전 및 부대행사,봉산문화협회,봉산문화협회,대구광역시+대구광역시 중구,053-661-2174,,,대구광역시 중구 봉산문화길 77,대구광역시 중구 봉산동 125,35.86339725,128.5965647,2021-08-20,3410000,대구광역시 중구
봉산미술제,봉산문화거리,2018-10-10,2018-10-16,화랑기획전 및 부대행사,봉산문화협회,봉산문화협회,대구광역시+대구광역시 중구,053-661-2174,,,대구광역시 중구 봉산문화길 77,대구광역시 중구 봉산동 125,35.86339725,128.5965647,2021-08-20,3410000,대구광역시 중구
봉산미술제,봉산문화거리,2019-10-04,2019-10-06,화랑기획전 및 부대행사,봉산문화협회,봉산문화협회,대구광역시+대구광역시 중구,053-661-2174,,,대구광역시 중구 봉산문화길 77,대구광역시 중구 봉산동 125,35.86339725,128.5965647,2021-08-20,3410000,대구광역시 중구
「제35회 대구약령시 한방문화축제」,약령시(약전골목) 일원,2012-05-02,2012-05-06,"경연, 참여, 체험, 전시, 공연, 먹거리 등",(사)약령시보존위원회,대구광역시+대구광역시 중구,문화체육관광부+한국관광공사+대구시 한약협회+대구시 한의사회+한약도매협회 대구시지회+(주)대구시한약재도매시장,053-661-2044,,,대구광역시 중구 남성로 61 (동성로3가),대구광역시 중구 동성로3가 35-13,35.86728562,128.5933466,2021-08-20,3410000,대구광역시 중구
제9회 해운대 빛축제,해운대 해수욕장 + 해운대광장,2022-11-27,2023-02-02,빛 시설물 설치 점등(축제 일정 미정),부산광역시 해운대구청,부산광역시 해운대구청,,051-749-4062,http://www.haeundae.go.kr/tour/index.do?menuCd=DOM_000000309000000000,,부산광역시 해운대구 해운대해변로 264,부산광역시 해운대구 중동 1415-49,35.15910698,129.1602838,2022-01-20,3330000,부산광역시 해운대구
2023 해운대 카운트다운&해맞이축제,해운대 해수욕장,2022-12-31,2023-01-01,"카운트다운 행사, 해맞이 행사, 부대 프로그램 등",부산광역시 해운대구청,부산광역시 해운대구청,,051-749-4062,,,부산광역시 해운대구 해운대해변로 264,부산광역시 해운대구 중동 1415-49,35.15910698,129.1602838,2022-01-20,3330000,부산광역시 해운대구
전포커피축제,전포카페거리 일원,2022-10-28,2022-10-29,"전포 코오피 스쿨, 아바타투어 등 부산진구 SNS를 활용한 다양한 체험,이벤트 프로그램 운영",부산광역시 부산진구청,부산광역시 부산진구청,,051-605-4524,https://www.busanjin.go.kr/index.busanjin?menuCd=DOM_000001003003006000,,부산광역시 부산진구 동천로 92(전포동),부산광역시 부산진구 전포동 668-1,35.1570356,129.0630291,2022-02-13,3290000,부산광역시 부산진구
부산시민 희망의 빛드림 페스티벌,부산시민공원 일대,2022-12-01,2023-01-31,경관 조명 설치 및 점등식 개최,부산광역시 부산진구청,부산광역시 부산진구청,,051-605-4522,https://www.busanjin.go.kr/index.busanjin?menuCd=DOM_000001003003006000,,부산광역시 부산진구 시민공원로30 (범전동),부산광역시 부산진구 부암동 666-16,35.16283064,129.053188,2022-02-13,3290000,부산광역시 부산진구
서면메티컬스트리트 축제,서면 메티컬 스트리트 일원,2022-10-22,2022-10-23,"VIP리셉션,  개막식,  홍보부스 운영, 비즈니스 미팅",부산광역시 부산진구청,(사)서면메디컬스트리트 의료관광 협의회,,051-605-6022,https://www.busanjin.go.kr/index.busanjin?menuCd=DOM_000001003003006000,,부산광역시 부산진구 시민공원로30 (범전동),부산광역시 부산진구 부암동 666-16,35.16283064,129.053188,2022-02-13,3290000,부산광역시 부산진구
제48회 의령 홍의장군축제,서동생활공원 일원,2022-04-21,2022-04-24,주제퍼포먼스+의병유적지투어+횃불행진,(사)의병기념사업회,(사)의병기념사업회,경상남도 의령군청,055-573-1100,http://www.의병제전.kr/kr/index.html#1,"의병박물관, 충익사",경상남도 의령군 의령읍 의병로8길 44,경상남도 의령군 의령읍 서동리 543,35.31545351,128.2558931,2022-02-16,5390000,경상남도 의령군
제6회 이호섭 가요제,의령 서동생활공원 특설무대,2022-04-23,2022-04-23,대중가요전반 예선 본선 경연,(사)의병기념사업회,(사)의병기념사업회,경상남도 의령군청+의령군의회,055-573-1100,http://www.의병제전.kr/kr/sub3_1.html,충익사,경상남도 의령군 의령읍 의병로8길 44,경상남도 의령군 의령읍 서동리 543,35.31545351,128.2558931,2022-02-16,5390000,경상남도 의령군
제34회 고양행주문화제,행주산성 및 행주산성 역사공원,2022-05-20,2022-05-21,"행주투석전, 뮤지컬행주대첩, 수상불꽃놀이, 행주국수대첩, 전통놀이한마당 및 시민참여프로그램 등",고양문화재단+고양문화원,고양시,,031-960-9684,http://www.hjfestival.or.kr,,경기도 고양시 덕양구 행주로 15번길 89,경기도 고양시 덕양구 행주내동 산26-1,37.59610775,126.8287118,2022-02-14,3940000,경기도 고양시
2022 고양호수예술축제,고양시 일산호수공원 및인근거리,2022-09-30,2022-10-03,국내외 거리예술공연 및 시민참여프로그램,고양문화재단,고양시,,031-960-9684,http://www.gylaf.kr,,경기도 고양시 일산동구 호수로 595,경기도 고양시 일산동구 장항동 906,37.65384593,126.7687814,2022-02-14,3940000,경기도 고양시
제8회 세계인형음악극축제,칠곡군 교육문화회관 등,2019-08-22,2019-08-25,"공연, 부대체험행사",경상북도+칠곡군,칠곡문화원,,054-979-6433,http://www.chilgokmpf.com/www/main,,경상북도 칠곡군 왜관읍 관문로1길 32,,35.9919995726,128.417300347,2019-06-14,5220000,경상북도 칠곡군
제7회 낙동강세계평화문화 대축전,칠곡보생태공원,2019-10-11,2019-10-13,"개폐막식, 공연,전시,체험 등",경상북도+칠곡군,낙동강세계평화문화대축전 추진위원회,문화체육관광부,054-979-6100,www.nakdongriver-peacefestival.or.kr,,,경상북도 칠곡군 석적읍 중지리 552,36.019199,128.401401,2019-06-14,5220000,경상북도 칠곡군
제6회 낙동강세계평화 문화대축전,칠곡군 생태공원,2018-10-12,2018-10-14,"6.25전쟁 마지막 보루였던 낙동강 칠곡지역에서 지구촌과 한반도의 평화 정착을 염원하는 축제 - 공연, 전시, 체험, 참여행사 및 부대행사",낙동강세계평화문화대축전 추진위원회,"경상북도, 칠곡군, 대한민국 국방부",문화체육관광부,054-979-6100,www.nakdongriver-peacefestival.or.kr,,,경상북도 칠곡군 석적읍 중지리 552,36.0182307,128.4011405,2019-06-14,5220000,경상북도 칠곡군
제7회 칠곡 세계 인형음악극 축제,칠곡군 교육문화회관,2018-08-23,2018-08-26,국내외 인형극단 공연,칠곡문화원,칠곡군,경상북도,054-977-5700,www.chilgokmpf.com,,경상북도 칠곡군 왜관읍 관문로1길 32,경상북도 칠곡군 왜관읍 석전리 254,35.9919995726,128.417300347,2019-06-14,5220000,경상북도 칠곡군
제5회 낙동강세계평화 문화대축전,칠곡군 생태공원,2017-09-22,2017-09-24,"6.25전쟁 마지막 보루였던 낙동강 칠곡지역에서 지구촌과 한반도의 평화 정착을 염원하는 축제 - 공연, 전시, 체험, 참여행사 및 부대행사","경상북도, 칠곡군",낙동강세계평화문화대축전 추진위원회,문화체육관광부,054-979-6100,www.nakdongriver-peacefestival.or.kr,,,경상북도 칠곡군 석적읍 중지리 552,36.0182307,128.4011405,2019-06-14,5220000,경상북도 칠곡군
제6회 칠곡 세계 인형음악극 축제,칠곡군 교육문화회관,2017-08-24,2017-08-27,국내외 인형극단 공연,칠곡군,대구예술대학교 문화예술연구소,경상북도,054-979-6433,www.chilgokmpf.com,,경상북도 칠곡군 왜관읍 관문로1길 32,경상북도 칠곡군 왜관읍 석전리 254,35.9919995726,128.417300347,2019-06-14,5220000,경상북도 칠곡군
제4회 낙동강세계평화 문화대축전,칠곡보 생태공원,2016-09-30,2016-10-30,"6.25전쟁 마지막 보루였던 낙동강 칠곡지역에서 지구촌과 한반도의 평화 정착을 염원하는 축제공연, 전시,체험, 참여행사 및 부대행사",낙동강세계평화문화대축전 추진위원회,문화체육관광부,"경상북도,칠곡군",054-979-6100,www.nakdongriver-peacefestival.or.kr/,"칠곡보, 칠곡 호국평화기념관, 구상문학관, 가실성당, 칠곡보 오토캠핑장",,경상북도 칠곡군 석적읍 중지리 552,36.0182307,128.4011405,2019-06-14,5220000,경상북도 칠곡군
제5회 칠곡 세계 인형음악극 축제,칠곡군 교육문화회관,2016-08-26,2016-08-29,국내외 인형극단 공연,대구예술대학교,대구예술대학교,"경상북도,칠곡군",054-971-2543,www.chilgokmpf.com,칠곡보,경상북도 칠곡군 왜관읍 관문로1길 32,경상북도 칠곡군 왜관읍 석전리 254,35.9919995726,128.417300347,2019-06-14,5220000,경상북도 칠곡군
제3회 낙동강세계평화 문화대축전,칠곡보 생태공원,2015-10-15,2015-10-18,"6.25전쟁 마지막 보루였던 낙동강 칠곡지역에서 지구촌과 한반도의 평화 정착을 염원하는 축제 - 공연, 전시, 체험, 참여행사 및 부대행사",낙동강세계평화문화대축전 추진위원회,낙동강세계평화문화대축전 추진위원회,문화체육관광부,054-979-6100,www.nakdongriver-peacefestival.or.kr/,"칠곡보, 칠곡 호국평화기념관, 구상문학관, 가실성당, 칠곡보 오토캠핑장",,경상북도 칠곡군 석적읍 중지리 552,36.0182307,128.4011405,2019-06-14,5220000,경상북도 칠곡군
제4회 칠곡 세계 인형음악극 축제,칠곡군 교육문화회관,2015-08-27,2015-08-30,국내외 인형극단 공연,대구예술대학교,대구예술대학교,"경상북도,칠곡군",054-971-2543,www.chilgokmpf.com,칠곡보,경상북도 칠곡군 왜관읍 관문로1길 32,경상북도 칠곡군 왜관읍 석전리 254,35.9919995726,128.417300347,2019-06-14,5220000,경상북도 칠곡군
2019고싸움놀이축제,5.18 민주광장,2019-08-11,2019-08-11,"고싸움놀이 축제, 전통공연, 초청공연, 달집 태우기, 각종 체험프로그램 등",고싸움놀이보존회,고싸움놀이보존회,,062-374-3839,http://www.gossaum.com,없음,광주광역시 동구 문화전당로 38,광주광역시 동구 광산동 13,35.1469145949,126.9199953604,2020-02-17,3610000,광주광역시 남구
굿모닝 양림,양림동 일원,2019-10-10,2019-10-31,"1. 전시 : 예술가아카이브전,  양림동의 화가들,  양림 사진전 등 2. 공연 : 가을숲속음악회, 클래식음악회 등 3. 참여 : 시낭송대회, 나도 양림 시낭송가 ○ 체험 : 공예/가을우체통(편지쓰기)등 4. 인문학강의",남구문화원+굿모닝 양림 행사추진위원회,광주광역시 남구,,062-607-2315,http://www.goodmorningyangrim.com/,없음,광주광역시 남구 사직길 49-1,광주광역시 남구 사동 177,35.1416230992,126.9114940686,2020-02-17,3610000,광주광역시 남구
하동북천꽃양귀비축제,하동군 북천면 꽃단지 일원,2020-01-01,2020-12-31,양귀비꽃축제,북천코스모스메밀꽃영농법인,북천코스모스메밀꽃영농법인,,,,,경상남도 하동군 북천면 경서대로 2253-21,,35.1110154687,127.8741644649,2020-03-10,5440000,경상남도 하동군
대이작 섬마을 밴드 음악축제,대이작도 일원,2020-07-25,2020-07-25,"가수공연, 체험행사, 불꽃놀이, 등",옹진문화원,옹진문화원,옹진군,032-899-2264,,,,인천광역시 옹진군 자월면 이작리 455,,,2021-10-18,3580000,인천광역시 옹진군
천안흥타령춤축제,삼거리공원,2021-09-29,2021-10-03,"자동차 공연장 공연(개폐막공연, 국제춤 대회 등), 전시홍보 부스운영(중소기업제품판매, 빵의도시천안홍보, 우수농산물및야생화홍보)",천안문화재단,천안문화재단,,041-900-7020,http://www.cfac.or.kr/Home/Perf/Fesitival.aspx,,충청남도 천안시 동남구 삼룡동 306-1,,,,2021-10-15,4490000,충청남도 천안시
입장거봉포도축제,입장거봉포도휴게소,2021-09-06,2021-09-20,"입장거봉포도 휴게소 내 드라이브스루 시식코너, 판매장 운영",입장거봉포도축제추진위원회,입장거봉포도축제추진위원회,,041-521-6847,,,충청남도 천안시 서북구 입장면 하장4길 19,,36.91362961,127.2197586,2021-10-15,4490000,충청남도 천안시
(코로나로 일정 미정)해미벚꽃축제,해미면 해미천,2021-04-13,2021-04-14,벚꽃축제 및 공연,해미벚꽃축제추진위원회,해미벚꽃축제추진위원회,서산시,041-660-3844,https://www.seosan.go.kr/tour/index.do,,,충청남도 서산시 해미면 읍내리 274-9,,,2022-01-28,4530000,충청남도 서산시
(코로나로 일정 미정)지곡 왕산포 서산갯마을축제,지곡면 중리포구,2021-06-08,2019-06-09,갯벌 바지락 캐기 체험 및 공연,지곡왕산포서산갯마을축제추진위원회,지곡왕산포서산갯마을축제추진위원회,서산시,041-660-2069,https://www.seosan.go.kr/tour/index.do,,충청남도 서산시 지곡면 어름들2길 66,,,,2022-01-28,4530000,충청남도 서산시
(코로나로 일정 미정)류방택 별축제,인지면 류방택천문기상과학관,2019-05-18,2019-05-18,천문과학 관련 체험,(사)금헌류방택기념사업회,(사)금헌류방택기념사업회,서산시,041-661-8009,https://www.seosan.go.kr/tour/index.do,,충청남도 서산시 인지면 무학로 1353-4,,,,2022-01-28,4530000,충청남도 서산시
(코로나로 일정 미정)팔봉산 감자축제,팔봉면 양길리 주차장,2021-06-24,2021-07-11,"감자캐기 체험, 판매",팔봉산감자축제추진위원회,팔봉산감자축제추진위원회,서산시,041-660-3937,https://www.seosan.go.kr/tour/index.do,,충청남도 서산시 팔봉면 팔봉산로 100,충청남도 서산시 팔봉면 양길리 820,,,2022-01-28,4530000,충청남도 서산시
(코로나로 일정 미정)서산6쪽마늘축제,해미읍성,2021-06-24,2021-07-21,"6쪽마늘 판매, 공연, 체험",서산6쪽마늘축제추진위원회,서산6쪽마늘축제추진위원회,서산시,041-660-3937,https://www.seosan.go.kr/tour/index.do,,충청남도 서산시 해미면 남문2로 143,,,,2022-01-28,4530000,충청남도 서산시
(코로나로 일정 미정)삼길포우럭축제,대산읍 화곡리 삼길포항,2021-07-26,2021-07-28,"우럭체험 및 전시, 판매",삼길포축제추진위원회,삼길포축제추진위원회,서산시,041-660-2069,https://www.seosan.go.kr/tour/index.do,,충청남도 서산시 대산읍 삼길포1로 65,,,,2022-01-28,4530000,충청남도 서산시
(코로나로 일정 미정)서산해미읍성축제,해미읍성,2021-10-08,2021-10-10,전통문화 공연 및 체험 등,(재)서산문화재단(서산해미읍성축제추진위원회),(재)서산문화재단(서산해미읍성축제추진위원회),서산시,041-660-2228,https://www.seosan.go.kr/tour/index.do,,충청남도 서산시 해미면 남문2로 143,,,,2022-01-28,4530000,충청남도 서산시
무의도 춤축제,무의도하나개해수욕장,2021-11-15,2021-11-30,"춤축제 다큐 제작, 축제 관련 자료 전시 및 영상송출, 포토존 설치 등",무의도아트센터,무의도아트센터,,032-760-6445,http://www.icjg.go.kr/tour/cttu0202a,,인천광역시 중구 하나개로 151-8,인천광역시 중구 무의동 산189,37.38415996,126.4108191,2022-02-28,3490000,인천광역시 중구
자유공원 축제,자유공원/한중문화관 일원,2021-08-01,2021-09-30,서예대전 전시 등,인천광역시 중구,인천광역시 중구,,032-760-6443,http://www.icjg.go.kr/tour/cttu0202a,,인천광역시 중구 자유공원남로 25,인천광역시 중구 송학동1가 11-1,37.47457949,126.6226346,2022-02-28,3490000,인천광역시 중구
신포크리스마스트리 축제,신포문화의거리 일원,2021-11-28,2022-01-31,대형트리 경관조명 및 콘서트,인천광역시 중구,인천광역시 중구,,032-760-6443,http://www.icjg.go.kr/tour/cttu0202a,,인천광역시 중구 신포로35,인천광역시 중구 관동3가 1-5,37.47199895,126.625463,2022-02-28,3490000,인천광역시 중구
영종크리스마스트리 축제,별빛광장 일원,2021-11-27,2022-01-31,대형트리 경관조명 및 콘서트,인천광역시 중구,인천광역시 중구,,032-760-6444,http://www.icjg.go.kr/tour/cttu0202a,,,인천광역시 중구 중산동 1884-5,37.48844481,126.5621277,2022-02-28,3490000,인천광역시 중구
인천개항장 문화재야행,인천 개항장 문화지구 일원,2021-07-01,2021-07-04,문화재 야간개방 및 스토리텔링 도보탐방 등,인천관광공사,인천광역시 중구,"문화재청, 인천광역시",032-760-6472,http://www.culturenight.co.kr/,,인천광역시 중구 신포로27번길 80,인천광역시 관동1가 9-1,37.47408104,126.6213401,2022-02-28,3490000,인천광역시 중구
인천개항장 문화재야행,인천 개항장 문화지구 일원,2021-11-05,2021-11-07,문화재 야간개방 및 스토리텔링 도보탐방 등,인천관광공사,인천광역시 중구,"문화재청, 인천광역시",032-760-6472,http://www.culturenight.co.kr/,,인천광역시 중구 신포로27번길 80,인천광역시 관동1가 9-1,37.47408104,126.6213401,2022-02-28,3490000,인천광역시 중구
2022 정조대왕 능행차 공동재현,서울 창덕궁~수원화성~화성 융릉),2022-10-08,2022-10-09,1795년 정조대왕의 을묘년 원행을 완벽하게 재현하는 국내 최대 퍼레이드,(재)수원문화재단,수원시,,031-228-2367,https://www.swcf.or.kr/shcf/,,경기도 수원시 팔달구 정조로 825,경기도 수원시 팔달구 남창동 6-2,37.28188256,127.0143944,2022-02-28,3740000,경기도 수원시
제59회 수원화성문화제,수원화성 일원,2022-10-07,2022-10-09,정조대왕의 효심과 부국강병의 원대한 꿈으로 축성된 세계문화유산 수원화성에서 펼쳐지는 3일간의 행사,(재)수원문화재단,수원시,,031-228-3068,https://www.swcf.or.kr/shcf/,,경기도 수원시 팔달구 정조로 825,경기도 수원시 팔달구 남창동 6-2,37.28188256,127.0143944,2022-02-28,3740000,경기도 수원시
2022 세계유산축전 수원화성,수원화성 일원,2022-10-01,2022-10-22,세계유산의 가치를 향유 및 확산하기 위해 세계기록유산인 의궤와 세계문화유산인 수원화성을 활용한 공연 및 프로그램 등 행사 운영,(재)수원문화재단,수원시,,031-228-2415,https://www.swcf.or.kr/shcf/,,경기도 수원시 팔달구 정조로 825,경기도 수원시 팔달구 남창동 6-2,37.28188256,127.0143944,2022-02-28,3740000,경기도 수원시
2022 수원화성 미디어아트쇼,화홍문~남수문 일원,2022-09-23,2022-10-22,수원화성 대표 건축물에 프로젝션 맵핑/인터렉티브 미디어아트/레이저 등 디지털 미디어 기술을 활용한 미디어아트쇼,(재)수원문화재단,수원시,,031-228-2367,https://www.swcf.or.kr/shcf/,,,경기도 수원시 팔달구 장안동 332,37.28708255,127.0121838,2022-02-28,3740000,경기도 수원시
2022 수원음식문화축제,수원화성박물관 주차장,2022-10-07,2022-10-09,양념갈비 등 음식 할인판매 수원전국요리경연대회 등 음식문화 관련 프로그램 운영(장소 및 일정은 예정임으로 변경되거나 코로나19로 취소될 수 있음),축제협의회+외식업지부,수원시,,031-228-2233,,,경기도 수원시 팔달구 창룡대로 21,경기도 수원시 팔달구 매향동 49,37.2825913909,127.0189850881,2022-02-28,3740000,경기도 수원시
전국 직장인 밴드 페스티벌,장생포문화창고,2022-03-19,2022-03-19,"공연, 전시",울산광역시 남구 문화원,울산광역시 남구청,,052-226-5413,,"공연, 전시",울산광역시 남구 돋질로 233,,35.54373999,129.3295216,2022-01-31,3700000,울산광역시 남구
문경오미자축제,문경동로초등학교일원,2021-09-17,2021-09-19,문경오미자 홍보,문경오미자축제추진위원회,문경시청,,054-571-7677,http://www.mg5mija.or.kr/,,경상북도 문경시 동로면 노은2길 4,경상북도 문경시 동로면 노은리 155-2,36.7715572,128.3153048,2021-06-02,5120000,경상북도 문경시
문경사과축제,문경새재도립공원일원,2021-10-16,2021-10-31,문경사과 홍보,문경사과축제추진위원회,문경시청,,054-571-7677,http://www.mgapple.or.kr/,,경상북도 문경시 문경읍 새재로932,경상북도 문경시 문경읍 상초리 288-1,36.76160207,128.0769905,2021-06-02,5120000,경상북도 문경시
증평들노래축제,증평민속체험박물관,2021-06-01,2021-06-30,"○ 핵심프로그램(장뜰두레농요 시연) ○ 전통 농경문화를 테마로 한 공연, 전시, 체험프로그램 운영 ○ 개막 공연 및 문화공연(효콘서트 국악한마당, 사랑의 퓨전음악회, 전통민속놀이 한마당) ○체험행사(물고기·우렁이잡기, 감자캐기, 논놀이·농경체험, 오감체험 등) ○ 경연행사(전국국악경연대회, 전국시조경창대회 등) ○ 전시행사(사진전시, 시화전시 등)",증평예총,증평들노래축제추진위원회,증평군,043-835-3970,https://www.jp.go.kr/tour/prog/tursmCn/sub03_02/view.do?progNo=p00000006370bi3vF1tv,,충청북도 증평군 증평읍 둔덕길 89,충청북도 증평군 증평읍 남하리 91,36.7638886,127.5955694,2021-05-31,5570000,충청북도 증평군
정월대보름 행사,안양천변 축구장(신정교아래),2019-02-16,2019-02-16,"정월대보름 행사 (풍물놀이, 민속놀이체험, 달집태우기, 불꽃놀이, 먹걸이장터등)",서울특별시 양천문화원,서울특별시 양천구청,,02-2651-5300,http://www.yangcheon.go.kr,,,서울특별시 양천구 신정동 1319-2,37.516601,126.863871,2021-08-23,3140000,서울특별시 양천구
방아다리벚꽃축제,신월5동,2019-04-06,2019-04-06,벚꽃 풍경이 멋진 방아다리길에서 마을주민축제개최,벚꽃축제추진위,신월5동,,02-2620-4130,http://www.yangcheon.go.kr,,,서울특별시 양천구 신정동 1319-3,37.51357078,126.8333718,2021-08-23,3140000,서울특별시 양천구
2019해우리문화축제,양천공원,2019-09-28,2019-09-28,"반려예술,반려식물존 구성으로 반려문화 한마당 개최",코피플랜,서울특별시 양천구청,,02-2620-3404,http://www.yangcheon.go.kr,,,서울특별시 양천구 신정동 1319-4,39.516601,128.863871,2021-08-23,3140000,서울특별시 양천구
세계거리춤축제,장한로,2021-10-16,2021-10-17,"세계거리춤공연, 주민참여무대, 각종춤경연",(사)세계거리춤축제위원회,(사)세계거리춤축제위원회,서울특별시 동대문구청,02-3295-5561,,"장한평역, 장한로, 세계거리춤",서울특별시 동대문구 천호대로405,서울특별시 동대문구 장안동472-3,37.56201359,127.0641794,2021-11-22,3050000,서울특별시 동대문구
청룡문화제,용두근린공원,2021-10-23,2021-10-24,제례봉행 및 어가행렬,서울특별시 동대문문화원,청룡문화제보존위원회,서울특별시 동대문구청,02-2241-9300,,"용두공원,청룡",서울특별시 동대문구 청계천로 563,서울특별시 동대문구 용두동 34-12,37.57325834,127.0385968,2021-11-22,3050000,서울특별시 동대문구
제28회 화도진축제,"동인천역북광장, 화도진공원 일원",2017-05-19,2017-05-20,구한말 인천 앞바다 해안 경계를 위해 설치한 화도진을 배경으로한 대표 군영축제,인천광역시 동구청,인천광역시 동구청,,032-770-6922,http://www.icdonggu.go.kr/open_content/culture/event/festival.jsp,"화도진공원, 수도국산달동네박물관, 배다리헌책방거리",인천광역시 동구 참외전로 125 (동인천역 광장),인천광역시 동구 송현동 70-10,37.476747,126.632239,2022-02-09,3500000,인천광역시 동구
제29회 화도진축제,"동인천역북광장, 화도진공원 일원",2018-05-18,2018-05-19,구한말 인천 앞바다 해안 경계를 위해 설치한 화도진을 배경으로한 대표 군영축제,인천광역시 동구청,인천광역시 동구청,,032-770-6922,http://www.icdonggu.go.kr/open_content/culture/event/festival.jsp,"화도진공원, 수도국산달동네박물관, 배다리헌책방거리",인천광역시 동구 참외전로 125 (동인천역 광장),인천광역시 동구 송현동 70-10,37.476747,126.632239,2022-02-09,3500000,인천광역시 동구
제30회 화도진축제,"동인천역북광장, 화도진공원 일원",2019-05-10,2019-05-11,구한말 인천 앞바다 해안 경계를 위해 설치한 화도진을 배경으로한 대표 군영축제,인천광역시 동구청,인천광역시 동구청,,032-770-6923,http://www.icdonggu.go.kr/open_content/culture/event/festival.jsp,"화도진공원, 수도국산달동네박물관, 배다리헌책방거리",인천광역시 동구 참외전로 125 (동인천역 광장),인천광역시 동구 송현동 70-10,37.476747,126.632239,2022-02-09,3500000,인천광역시 동구
양양문화제,양양남대천 둔치 및 부대행사장,2022-06-20,2022-06-22,(코로나19로 인해 22년도 축제 미정)지역문화예술 전통축제,양양문화제위원회,양양군,,033-670-2795,https://tour.yangyang.go.kr/tour/festival/festival_culture,,,강원도 양양군 양양읍 남문리 226-2,38.07312233,128.6241919,2022-03-03,4350000,강원도 양양군
양양송이축제,양양남대천 둔치 및 부대행사장,2022-09-26,2022-09-29,"(코로나19로 인해 22년도 축제 미정)송이채취현장체험, 송이보물찾기체험 등",양양문화재단,양양군,,033-671-3803,https://tour.yangyang.go.kr/tour/festival/festival_mushroom,,,강원도 양양군 양양읍 남문리 226-2,38.07312233,128.6241919,2022-03-03,4350000,강원도 양양군
양양연어축제,양양남대천 둔치 및 부대행사장,2022-10-24,2022-10-27,"(코로나19로 인해 22년도 축제 미정)연어맨손잡이체험, 연어탁본 등",양양문화재단,양양군,,033-671-3803,https://tour.yangyang.go.kr/tour/festival/festival_salmon,,,강원도 양양군 양양읍 남문리 226-2,38.07312233,128.6241919,2022-03-03,4350000,강원도 양양군
(축제 취소)광양매화축제,다압면 섬진마을 일원,2023-01-01,2023-12-31,"공연,경연,체험,전시,판매,부대행사",광양매화축제추진위원회,광양시,,061-797-2721,http://www.gwangyang.go.kr/tour_culture,코로나19로 인한 축제 취소,전라남도 광양시 시청로 33,전라남도 광양시 중동 1313,34.94063056,127.6959675,2022-03-02,4840000,전라남도 광양시
(축제 미정)백운산국사봉철쭉축제,옥곡면 국사봉랜드,2023-01-01,2023-12-31,"공연,경연,체험,전시,판매,부대행사",백운산국사봉철쭉축제추진위원회,광양시,,061-797-4233,http://www.gwangyang.go.kr/tour_culture,코로나19로 인한 일정 미정,전라남도 광양시 옥곡면 옥진로 665-1,전라남도 광양시 옥곡면 수평리 131-3,34.98936299,127.7001825,2022-03-02,4840000,전라남도 광양시
(축제 미정)광양전어축제,진월면 망덕포구 일원,2023-01-01,2023-12-31,"공연,경연,체험,전시,판매,부대행사",광양전어축제추진위원회,광양시,,061-797-3679,http://www.gwangyang.go.kr/tour_culture,코로나19로 인한 일정 미정,전라남도 광양시 진월면 망덕길 265,전라남도 광양시 진월면 망덕리 12-1,34.97164706,127.7587907,2022-03-02,4840000,전라남도 광양시
(축제 미정)광양숯불구이축제,광양읍 서천변 일원,2023-01-01,2023-12-31,"공연,경연,체험,전시,판매,부대행사",광양숯불구이축제추진위원회,광양시,,061-797-4903,http://www.gwangyang.go.kr/tour_culture,코로나19로 인한 일정 미정,전라남도 광양시 광양읍 남등길 6,전라남도 광양시 광양읍 칠성리 946,34.9733415,127.5810489,2022-03-02,4840000,전라남도 광양시
제13회 독산성문화제,고인돌공원,2022-10-15,2022-10-16,독산성의 역사적 배경인 권율장군 지혜의 승전을 기념하는 오산시 대표문화제,경기도 오산시청,오산문화재단,,031-379-9924,https://www.doksanseong.kr/,,,경기도 오산시 금암동 520,37.172878,127.0474505,2022-03-02,4000000,경기도 오산시
제17회 시흥갯골축제,"온라인, 오프라인",2022-09-23,2022-09-25,시흥갯골 축제(세상에서 가장 큰 생태예술놀이터),경기도 시흥시청,경기도 시흥시청,,031-310-2916,,,경기도 시흥시 동서로 287,경기도 시흥시 장곡동 724-32,37.38979099,126.7812554,2022-03-01,4010000,경기도 시흥시
어린이 축제,중구문화회관,2021-11-06,2021-11-06,어린이 축제,인천광역시 중구,인천광역시 중구,,032-760-6445,http://www.icjg.go.kr/tour/cttu0202a,,인천광역시 중구 축항대로296번길81,인천광역시 중구 신흥동3가 69-1,37.4401753810,126.6294069668,2022-02-28,3490000,인천광역시 중구
